id,name,description,address,latitude,longitude,city_id,opening_hours,rating,user_rating,types,phone_number,createdAt,updatedAt
1,Pura Candi Untoroyono,-,"Jl. Karangwungu - Pedan No.354, Nayan, Kalangan, Kec. Pedan, Kabupaten Klaten, Jawa Tengah 57468, Indonesia",-7.6852429,110.7277187,33,Monday: Open 24 hours|Tuesday: Open 24 hours|Wednesday: Open 24 hours|Thursday: Open 24 hours|Friday: Open 24 hours|Saturday: Open 24 hours|Sunday: Open 24 hours,4.2,122,hindu_temple|tourist_attraction|place_of_worship|point_of_interest|establishment,-,10/13/2023 9:38:53.000 PM,10/13/2023 9:38:53.000 PM
2,Wisat Alam Curug Sinom Indah Kalibening,-,"QMMR+497, Area Hutan/Perkebunan, Kasinoman, Kec. Kalibening, Kab. Banjarnegara, Jawa Tengah 53458, Indonesia",-7.217212499999998,109.6909219,28,Monday: 7:00?AM?–?5:00?PM|Tuesday: 7:00?AM?–?5:00?PM|Wednesday: 7:00?AM?–?5:00?PM|Thursday: 7:00?AM?–?5:00?PM|Friday: 7:00?AM?–?5:00?PM|Saturday: 7:00?AM?–?5:00?PM|Sunday: 7:00?AM?–?5:00?PM,4.3,222,tourist_attraction|point_of_interest|establishment,0852-2797-8904,10/13/2023 9:38:53.000 PM,10/13/2023 9:38:53.000 PM
3,Pura Sonosewu,-,"Sawah, Wirun, Kec. Mojolaban, Kabupaten Sukoharjo, Jawa Tengah 57554, Indonesia",-7.6011514,110.8629781,7,Monday: 9:00?AM?–?5:00?PM|Tuesday: 9:00?AM?–?5:00?PM|Wednesday: 9:00?AM?–?5:00?PM|Thursday: 9:00?AM?–?5:00?PM|Friday: 9:00?AM?–?5:00?PM|Saturday: 9:00?AM?–?5:00?PM|Sunday: 9:00?AM?–?5:00?PM,4.5,37,hindu_temple|tourist_attraction|place_of_worship|point_of_interest|establishment,-,10/13/2023 9:38:52.000 PM,10/13/2023 9:38:52.000 PM
4,Perpustakaan BBalitvet,-,"Jl. Re. Martadinata Haji Bin Ali No.30, RT.03/RW.11, Ciwaringin, Kecamatan Bogor Tengah, Kota Bogor, Jawa Barat 16124, Indonesia",-6.582898699999999,106.7913302,8,Monday: 8:00?AM?–?4:00?PM|Tuesday: 8:00?AM?–?4:00?PM|Wednesday: 8:00?AM?–?4:00?PM|Thursday: 8:00?AM?–?4:00?PM|Friday: 8:00?AM?–?4:00?PM|Saturday: Closed|Sunday: Closed,4.8,68,museum|tourist_attraction|point_of_interest|establishment,(0251) 8339100,10/13/2023 9:38:52.000 PM,10/13/2023 9:38:52.000 PM
5,Gereja Katedral Santa Perawan Maria Ratu Rosario Suci,"Early 20th-century Roman Catholic cathedral with grand dome & arch features, plus a small courtyard.","Jl. Pandanaran No.9, Randusari, Kec. Semarang Sel., Kota Semarang, Jawa Tengah 50244, Indonesia",-6.985479700000001,110.4098457,4,Monday: 8:00?AM?–?6:00?PM|Tuesday: 8:00?AM?–?6:00?PM|Wednesday: 8:00?AM?–?6:00?PM|Thursday: 8:00?AM?–?6:00?PM|Friday: 8:00?AM?–?6:00?PM|Saturday: 8:00?AM?–?6:00?PM|Sunday: 8:00?AM?–?6:00?PM,4.8,3592,tourist_attraction|church|place_of_worship|point_of_interest|establishment,(024) 8310036,10/13/2023 9:38:52.000 PM,10/13/2023 9:38:52.000 PM
6,Bukit Watu Gagak,-,"39WQ+2RQ, Singosaren, Wukirsari, Kec. Imogiri, Kabupaten Bantul, Daerah Istimewa Yogyakarta 55782, Indonesia",-7.9049069,110.3896199,17,-,4.6,143,tourist_attraction|point_of_interest|establishment,-,10/13/2023 9:38:52.000 PM,10/13/2023 9:38:52.000 PM
7,Grand Puri Waterpark,-,"Gabusan, Jl. Parangtritis No.KM. 9, Balong, Timbulharjo, Kec. Sewon, Kabupaten Bantul, Daerah Istimewa Yogyakarta 55186, Indonesia",-7.877788100000003,110.3527371,17,Monday: 9:00?AM?–?5:00?PM|Tuesday: 9:00?AM?–?5:00?PM|Wednesday: 9:00?AM?–?5:00?PM|Thursday: 9:00?AM?–?5:00?PM|Friday: 9:00?AM?–?5:00?PM|Saturday: 8:00?AM?–?5:00?PM|Sunday: 8:00?AM?–?5:00?PM,4.2,3075,tourist_attraction|amusement_park|point_of_interest|establishment,(0274) 6463088,10/13/2023 9:38:52.000 PM,10/13/2023 9:38:52.000 PM
8,Wisata sendang mbudho,-,"89WQ+X7M, Daren Lor, Donokerto, Kec. Turi, Kabupaten Sleman, Daerah Istimewa Yogyakarta 55551, Indonesia",-7.652543799999999,110.3881818,18,Monday: 9:00?AM?–?5:00?PM|Tuesday: 9:00?AM?–?5:00?PM|Wednesday: 9:00?AM?–?5:00?PM|Thursday: 9:00?AM?–?5:00?PM|Friday: 9:00?AM?–?5:00?PM|Saturday: 7:00?AM?–?5:00?PM|Sunday: 7:00?AM?–?5:00?PM,4.6,129,tourist_attraction|point_of_interest|establishment,0812-3949-9991,10/13/2023 9:38:52.000 PM,10/13/2023 9:38:52.000 PM
9,Sekantong,-,"Dukuh: badulan RT/RW 01/01 Desa:pesaren Kecamatan: warung asem Kabupaten:batang, Area Sawah, Cepagan, Kec. Warungasem, Kabupaten Batang, Jawa Tengah 51252, Indonesia",-6.951265599999999,109.6997802,14,-,5,2,tourist_attraction|point_of_interest|establishment,-,10/13/2023 9:38:52.000 PM,10/13/2023 9:38:52.000 PM
10,Air Terjun Lembah SiMaghrib,-,"V42R+3R4, Sumber Asih, Sumberarum, Kec. Songgon, Kabupaten Banyuwangi, Jawa Timur 68463, Indonesia",-8.1498691,114.1420738,15,-,4.5,4,tourist_attraction|point_of_interest|establishment,-,10/13/2023 9:38:52.000 PM,10/13/2023 9:38:52.000 PM
11,KEBUN BUAH NAGA BIMOK,-,"C7X5+RW9, Sumber Rejeki, Sumberasri, Kec. Purwoharjo, Kabupaten Banyuwangi, Jawa Timur 68483, Indonesia",-8.551416399999999,114.2594765,15,-,5,1,tourist_attraction|point_of_interest|establishment,-,10/13/2023 9:38:52.000 PM,10/13/2023 9:38:52.000 PM
12,Sanggar Among Lare?????????????,-,"Pereng, Sendangsari, Kec. Pengasih, Kabupaten Kulon Progo, Daerah Istimewa Yogyakarta, Indonesia",-7.8189812,110.1529385,19,-,4.5,19,tourist_attraction|point_of_interest|establishment,-,10/13/2023 9:38:52.000 PM,10/13/2023 9:38:52.000 PM
13,Air Terjun Tirto Kemanten,-,"Dusun Wonorejo, Kalibaruwetan, Kec. Kalibaru, Kabupaten Banyuwangi, Jawa Timur 68467, Indonesia",-8.2415644,113.9871766,15,Monday: 6:00?AM?–?5:30?PM|Tuesday: 6:00?AM?–?5:30?PM|Wednesday: 6:00?AM?–?5:30?PM|Thursday: 6:00?AM?–?5:30?PM|Friday: 6:00?AM?–?5:30?PM|Saturday: 6:00?AM?–?5:30?PM|Sunday: 6:00?AM?–?5:30?PM,4.3,306,tourist_attraction|point_of_interest|establishment,-,10/13/2023 9:38:52.000 PM,10/13/2023 9:38:52.000 PM
14,Sungai sekitar FRC UGM,-,"44WX+2QM, Area Sawah, Wates, Kec. Wates, Kabupaten Kulon Progo, Daerah Istimewa Yogyakarta 55651, Indonesia",-7.8549149,110.1494243,19,-,4.7,3,tourist_attraction|point_of_interest|establishment,-,10/13/2023 9:38:52.000 PM,10/13/2023 9:38:52.000 PM
15,Metro Mushola,-,"Lt.2 PB I, No.081, Pusat Grosir Metro Beringharjo, Jalan Pabringan Blok C2 No.1, Suryodiningratan, Kec. Mantrijeron, Kota Yogyakarta, Daerah Istimewa Yogyakarta 55122, Indonesia",-7.8137748,110.360471,5,-,3,1,mosque|tourist_attraction|place_of_worship|point_of_interest|establishment,-,10/13/2023 9:38:52.000 PM,10/13/2023 9:38:52.000 PM
16,WARKOP KULON NDESO,-,"4M97+W55, Jl. Alternatif Yogyakarta - Wonogiri, Jeruklegi, Katongan, Kec. Nglipar, Kabupaten Gunung Kidul, Daerah Istimewa Yogyakarta 55852, Indonesia",-7.8802337,110.6629805,20,Monday: 3:30?–?9:45?PM|Tuesday: 3:30?–?9:45?PM|Wednesday: 3:30?–?9:45?PM|Thursday: 3:30?–?9:45?PM|Friday: 3:30?–?9:45?PM|Saturday: 3:30?–?11:00?PM|Sunday: 3:30?–?9:45?PM,5,3,tourist_attraction|point_of_interest|establishment,0852-2992-4140,10/13/2023 9:38:52.000 PM,10/13/2023 9:38:52.000 PM
17,Tampomas Banjarnegara,-,"Jalan Raya Brengkok - Banjarnegara No.7, Binangun, Parakancanggah, Kec. Banjarnegara, Kab. Banjarnegara, Jawa Tengah 53412, Indonesia",-7.430959700000001,109.6465953,28,Monday: 6:00?AM?–?5:00?PM|Tuesday: 6:00?AM?–?5:00?PM|Wednesday: 6:00?AM?–?5:00?PM|Thursday: 6:00?AM?–?5:00?PM|Friday: 6:00?AM?–?5:00?PM|Saturday: 6:00?AM?–?5:00?PM|Sunday: 6:00?AM?–?5:00?PM,4.3,326,tourist_attraction|point_of_interest|establishment,-,10/13/2023 9:38:52.000 PM,10/13/2023 9:38:52.000 PM
18,Wisata Tirto Argo,-,"P2C7+FW9, Dusun Karanganyar, Kajarharjo, Kec. Kalibaru, Kabupaten Banyuwangi, Jawa Timur 68467, Indonesia",-8.2788348,114.0148706,15,-,3.9,43,tourist_attraction|point_of_interest|establishment,-,10/13/2023 9:38:52.000 PM,10/13/2023 9:38:52.000 PM
19,RK rent,-,"Jl. Kelud Timur I No.13, Petompon, Kec. Gajahmungkur, Kota Semarang, Jawa Tengah 50237, Indonesia",-7.004822599999999,110.4045678,4,Monday: Open 24 hours|Tuesday: Open 24 hours|Wednesday: Open 24 hours|Thursday: Open 24 hours|Friday: Open 24 hours|Saturday: Open 24 hours|Sunday: Open 24 hours,4.9,7,car_rental|tourist_attraction|point_of_interest|establishment,0821-3664-0383,10/13/2023 9:38:52.000 PM,10/13/2023 9:38:52.000 PM
20,Bintang Pradana Jogja Tour,-,"Jl. Pogung Rejo SIA XVI No.A-08, Pogung Kidul, Sinduadi, Kec. Mlati, Kabupaten Sleman, Daerah Istimewa Yogyakarta 55284, Indonesia",-7.7593783,110.3716453,18,Monday: Open 24 hours|Tuesday: Open 24 hours|Wednesday: Open 24 hours|Thursday: Open 24 hours|Friday: Open 24 hours|Saturday: Open 24 hours|Sunday: Open 24 hours,4,1,tourist_attraction|point_of_interest|establishment,0812-2553-7361,10/13/2023 9:38:52.000 PM,10/13/2023 9:38:52.000 PM
21,Outbound Bogor,-,"Jl. Lawang Gintung No.2, RT.01/RW.05, Lawanggintung, Kec. Bogor Sel., Kota Bogor, Jawa Barat 16134, Indonesia",-6.6237627,106.8128939,8,Monday: 8:00?AM?–?4:00?PM|Tuesday: 8:00?AM?–?4:00?PM|Wednesday: 8:00?AM?–?4:00?PM|Thursday: 8:00?AM?–?4:00?PM|Friday: 8:00?AM?–?4:00?PM|Saturday: 8:00?AM?–?1:00?PM|Sunday: Closed,4.5,51,tourist_attraction|point_of_interest|establishment,0877-7005-0002,10/13/2023 9:38:52.000 PM,10/13/2023 9:38:52.000 PM
22,Sendang Belik Sigendel,-,"82GM+MH3, Banjaran, Loano, Kec. Loano, Kabupaten Purworejo, Jawa Tengah, Indonesia",-7.6733749,110.0339351,31,Monday: Open 24 hours|Tuesday: Open 24 hours|Wednesday: Open 24 hours|Thursday: Open 24 hours|Friday: Open 24 hours|Saturday: Open 24 hours|Sunday: Open 24 hours,5,1,tourist_attraction|point_of_interest|establishment,-,10/13/2023 9:38:52.000 PM,10/13/2023 9:38:52.000 PM
23,Menara Pandang Teratai,-,"Jl. Bung Karno, Kalibener, Kedungwuluh, Kec. Purwokerto Tim., Kabupaten Banyumas, Jawa Tengah, Indonesia",-7.431525499999999,109.2325481,13,-,4.6,4257,tourist_attraction|point_of_interest|establishment,-,10/13/2023 9:38:52.000 PM,10/13/2023 9:38:52.000 PM
24,Sekretariat Sementara Museum Pendidikan Dan Mainan Kolong Tangga,This museum features a wide selection of educational toys & board games from throughout history.,"Jl. Tirtodipuran No.26, Mantrijeron, Kec. Mantrijeron, Kota Yogyakarta, Daerah Istimewa Yogyakarta 55143, Indonesia",-7.818723500000001,110.3647195,5,Monday: 9:00?AM?–?4:00?PM|Tuesday: 9:00?AM?–?4:00?PM|Wednesday: 9:00?AM?–?4:00?PM|Thursday: 9:00?AM?–?4:00?PM|Friday: 9:00?AM?–?4:00?PM|Saturday: 9:00?AM?–?4:00?PM|Sunday: Closed,4.3,60,tourist_attraction|museum|point_of_interest|establishment,0811-2633-977,10/13/2023 9:38:52.000 PM,10/13/2023 9:38:52.000 PM
25,Pantai Krematorium,-,"4MVG+62R, Kandang Panjang, Pekalongan Utara, Pekalongan City, Central Java 51149, Indonesia",-6.856876399999999,109.6750012,14,Monday: 5:00?AM?–?6:00?PM|Tuesday: 5:00?AM?–?6:00?PM|Wednesday: 5:00?AM?–?6:00?PM|Thursday: 5:00?AM?–?6:00?PM|Friday: 5:00?AM?–?6:00?PM|Saturday: 5:00?AM?–?6:00?PM|Sunday: 5:00?AM?–?6:00?PM,4.2,42,tourist_attraction|point_of_interest|establishment,-,10/13/2023 9:38:52.000 PM,10/13/2023 9:38:52.000 PM
26,Serang RIVER VIEW,-,"5598+G76, Serang, Sendangsari, Kec. Pengasih, Kabupaten Kulon Progo, Daerah Istimewa Yogyakarta 55652, Indonesia",-7.8312021,110.165643,19,-,4.5,40,tourist_attraction|point_of_interest|establishment,-,10/13/2023 9:38:52.000 PM,10/13/2023 9:38:52.000 PM
27,Sumber Air Sodong,-,"XCG9+2QV, Pudak, Giriwungu, Kec. Panggang, Kabupaten Gunung Kidul, Daerah Istimewa Yogyakarta 55872, Indonesia",-8.024880399999999,110.4194366,20,-,5,1,tourist_attraction|point_of_interest|establishment,-,10/13/2023 9:38:52.000 PM,10/13/2023 9:38:52.000 PM
28,Rumah Noel Jogja,-,"793W+9HF, Jl. Sengkan, Ngabean Wetan, Sinduharjo, Kec. Ngaglik, Kabupaten Sleman, Daerah Istimewa Yogyakarta 55581, Indonesia",-7.7465599,110.3964192,18,-,5,2,tourist_attraction|point_of_interest|establishment,-,10/13/2023 9:38:52.000 PM,10/13/2023 9:38:52.000 PM
29,Indonesian Museum of Ethnobotany,Contemporary space for themed exhibits & educational workshops about natural history & culture.,"Pusat Penelitian Biologi – LIPI, Jl. Ir. H. Juanda No.22 - 24, RT.02/RW.08, Paledang, Kecamatan Bogor Tengah, Kota Bogor, Jawa Barat 16122, Indonesia",-6.5991207,106.7939635,8,Monday: 8:00?AM?–?4:00?PM|Tuesday: 8:00?AM?–?4:00?PM|Wednesday: 8:00?AM?–?4:00?PM|Thursday: 8:00?AM?–?4:00?PM|Friday: 8:00?AM?–?4:00?PM|Saturday: 8:00?AM?–?4:00?PM|Sunday: 8:00?AM?–?4:00?PM,4.6,1265,museum|tourist_attraction|point_of_interest|establishment,0856-1790-513,10/13/2023 9:38:52.000 PM,10/13/2023 9:38:52.000 PM
30,Embung Sendangtirto,-,"Tampungan, Sendangtirto, Kec. Berbah, Kabupaten Sleman, Daerah Istimewa Yogyakarta 55573, Indonesia",-7.807137200000001,110.4323893,5,Monday: Open 24 hours|Tuesday: Open 24 hours|Wednesday: Open 24 hours|Thursday: Open 24 hours|Friday: Open 24 hours|Saturday: Open 24 hours|Sunday: Open 24 hours,4.5,534,tourist_attraction|park|point_of_interest|establishment,-,10/13/2023 9:38:52.000 PM,10/13/2023 9:38:52.000 PM
31,Penyeberangan jalur cepat ke kota,-,"8X7W+24, Sawah, Kutawaru, Cilacap Tengah, Cilacap Regency, Central Java, Indonesia",-7.687444500000001,108.9952799,11,-,4,1,tourist_attraction|point_of_interest|establishment,-,10/13/2023 9:38:52.000 PM,10/13/2023 9:38:52.000 PM
32,Curug kanyere,-,"Bojong Koneng, Babakan Madang, Bogor Regency, West Java 16810, Indonesia",-6.620122599999999,106.9097177,8,Monday: 7:30?AM?–?5:00?PM|Tuesday: 7:30?AM?–?5:00?PM|Wednesday: 7:30?AM?–?5:00?PM|Thursday: 7:30?AM?–?5:00?PM|Friday: 7:30?AM?–?5:00?PM|Saturday: 7:30?AM?–?6:00?PM|Sunday: 7:30?AM?–?6:00?PM,4.4,77,tourist_attraction|point_of_interest|establishment,-,10/13/2023 9:38:52.000 PM,10/13/2023 9:38:52.000 PM
33,Wisata gathak temuguruh,-,"Jl. Sultan Agung Jl. Temuguruh No.10, Dusun Tojo Lor, Temuguruh, Kec. Sempu, Kabupaten Banyuwangi, Jawa Timur 68468, Indonesia",-8.3157317,114.19915,15,Monday: Closed|Tuesday: Closed|Wednesday: Closed|Thursday: Closed|Friday: Closed|Saturday: 9:00?AM?–?5:00?PM|Sunday: 9:00?AM?–?5:00?PM,3.9,9,tourist_attraction|point_of_interest|establishment,-,10/13/2023 9:38:52.000 PM,10/13/2023 9:38:52.000 PM
34,Goa Sodong,-,"XCG9+2QV, Pudak, Giriwungu, Kec. Panggang, Kabupaten Gunung Kidul, Daerah Istimewa Yogyakarta 55872, Indonesia",-8.0246794,110.4187963,20,-,5,1,tourist_attraction|point_of_interest|establishment,-,10/13/2023 9:38:52.000 PM,10/13/2023 9:38:52.000 PM
35,Museum Sandi,"House museum with a collection of coding machines, ciphers & other objects related to encryption.","Jl. Faridan M Noto No.21, Kotabaru, Kec. Gondokusuman, Kota Yogyakarta, Daerah Istimewa Yogyakarta 55224, Indonesia",-7.784554900000001,110.3711548,5,Monday: Closed|Tuesday: 9:00?AM?–?3:00?PM|Wednesday: 9:00?AM?–?3:00?PM|Thursday: 9:00?AM?–?3:00?PM|Friday: 9:00?AM?–?9:00?PM|Saturday: 9:00?AM?–?3:00?PM|Sunday: 9:00?AM?–?3:00?PM,4.7,1517,museum|tourist_attraction|point_of_interest|establishment,0811-1065-2040,10/13/2023 9:38:52.000 PM,10/13/2023 9:38:52.000 PM
36,Devoyage Bogor,"European-village-themed amusement park featuring food, rides & locations to take selfies.","Jl. Bogor Nirwana Residence Jl. Indigo Raya, Mulyaharja, Kec. Bogor Sel., Kota Bogor, Jawa Barat 16135, Indonesia",-6.6370888,106.7953617,8,Monday: 9:00?AM?–?6:00?PM|Tuesday: 9:00?AM?–?6:00?PM|Wednesday: 9:00?AM?–?6:00?PM|Thursday: 9:00?AM?–?6:00?PM|Friday: 9:00?AM?–?6:00?PM|Saturday: 9:00?AM?–?6:00?PM|Sunday: 9:00?AM?–?6:00?PM,4.1,15852,tourist_attraction|park|point_of_interest|establishment,0878-2019-3911,10/13/2023 9:38:52.000 PM,10/13/2023 9:38:52.000 PM
37,Sendang Sumber Dharmo,-,"Lingkungan Lalangan, Jl. Rejosari, RT.001/RW.002, Dusun Watu Ulo, Rejosari, Kec. Glagah, Kabupaten Banyuwangi, Jawa Timur, Indonesia",-8.223004599999998,114.3353877,15,Monday: Open 24 hours|Tuesday: Open 24 hours|Wednesday: Open 24 hours|Thursday: Open 24 hours|Friday: Open 24 hours|Saturday: Open 24 hours|Sunday: Open 24 hours,4.6,5,tourist_attraction|point_of_interest|establishment,0813-4283-6299,10/13/2023 9:38:52.000 PM,10/13/2023 9:38:52.000 PM
38,Hasri Ainun Habibie's Family Park,-,"Jl. Pemuda No.2, Wonosobo Timur, Wonosobo Tim., Kec. Wonosobo, Kabupaten Wonosobo, Jawa Tengah 56311, Indonesia",-7.359071499999999,109.9013639,29,Monday: Open 24 hours|Tuesday: Open 24 hours|Wednesday: Open 24 hours|Thursday: Open 24 hours|Friday: Open 24 hours|Saturday: Open 24 hours|Sunday: Open 24 hours,4.2,68,park|tourist_attraction|point_of_interest|establishment,-,10/13/2023 9:38:52.000 PM,10/13/2023 9:38:52.000 PM
39,Bheqcot Adventure,-,"ll, Jl. Bintaro Permai, Bintaro, Kec. Pesanggrahan, Kota Jakarta Selatan, Daerah Khusus Ibukota Jakarta, Indonesia",-6.2610443,106.7636853,9,-,5,1,tourist_attraction|point_of_interest|establishment,-,10/13/2023 9:38:52.000 PM,10/13/2023 9:38:52.000 PM
40,Bank Sayur Kita,-,"jl. wana wisata rowo bayu songgon, Q5WJ+4R7, Jl. Tanah Lost, Bayurejo, Bayu, Kec. Songgon, Kabupaten Banyuwangi, Jawa Timur 68463, Indonesia",-8.204709099999999,114.1820491,15,Monday: 7:30?AM?–?4:00?PM|Tuesday: 7:30?AM?–?4:00?PM|Wednesday: 7:30?AM?–?4:00?PM|Thursday: 7:30?AM?–?4:00?PM|Friday: 7:30?AM?–?4:00?PM|Saturday: 7:30?AM?–?4:00?PM|Sunday: 7:30?AM?–?4:00?PM,4.2,17,tourist_attraction|point_of_interest|establishment,0852-5998-5868,10/13/2023 9:38:52.000 PM,10/13/2023 9:38:52.000 PM
41,Gua Pindul,-,"Unnamed Road, 3JGR+3FP, Karang Lor, Bejiharjo, Karangmojo, Gunung Kidul Regency, Special Region of Yogyakarta 55891, Indonesia",-7.924775600000001,110.6411903,20,-,4.7,139,tourist_attraction|point_of_interest|establishment,-,10/13/2023 9:38:52.000 PM,10/13/2023 9:38:52.000 PM
42,Museum Rekor Dunia - Indonesia,"Museum dedicated to Indonesian world achievements, records & cultural information.","Jl. Perintis Kemerdekaan No.275, Srondol Kulon, Kec. Banyumanik, Kota Semarang, Jawa Tengah 50263, Indonesia",-7.069103300000001,110.4112227,4,Monday: 9:00?AM?–?3:00?PM|Tuesday: 9:00?AM?–?3:00?PM|Wednesday: 9:00?AM?–?3:00?PM|Thursday: 9:00?AM?–?3:00?PM|Friday: 9:00?AM?–?3:00?PM|Saturday: Closed|Sunday: Closed,4.5,673,museum|tourist_attraction|point_of_interest|establishment,(024) 7475172,10/13/2023 9:38:52.000 PM,10/13/2023 9:38:52.000 PM
43,PUNCAK IGIR LEMPUYANG,-,"FGQF+86Q, Dukuh karang kobar, RT.008/RW.005, Area Hutan/Perkebunan, Jalatunda, Kec. Purwanegara, Kab. Banjarnegara, Jawa Tengah, Indonesia",-7.5116716,109.523102,28,Monday: 6:30?AM?–?5:00?AM|Tuesday: 6:30?AM?–?5:00?AM|Wednesday: 6:30?AM?–?5:00?AM|Thursday: 6:30?AM?–?5:00?AM|Friday: 6:30?AM?–?5:00?AM|Saturday: 6:30?AM?–?5:00?AM|Sunday: 6:30?AM?–?5:00?AM,5,1,tourist_attraction|point_of_interest|establishment,-,10/13/2023 9:38:52.000 PM,10/13/2023 9:38:52.000 PM
44,Sanggar ukm seni amukthi wijaya,-,"PP97+53P, Dukuh Kupang, Dukuhpakis, Surabaya, East Java 60225, Indonesia",-7.2820499,112.7127099,2,Monday: Open 24 hours|Tuesday: Open 24 hours|Wednesday: Open 24 hours|Thursday: Open 24 hours|Friday: Open 24 hours|Saturday: Open 24 hours|Sunday: Closed,5,1,tourist_attraction|point_of_interest|establishment,0812-5916-2426,10/13/2023 9:38:52.000 PM,10/13/2023 9:38:52.000 PM
45,Pemandian Batu Hitam,-,"Pakis Pakis, Pakis, Songgon, Kec. Songgon, Kabupaten Banyuwangi, Jawa Timur 68463, Indonesia",-8.240108599999997,114.2126883,15,Monday: 8:00?AM?–?5:00?PM|Tuesday: 8:00?AM?–?5:00?PM|Wednesday: 8:00?AM?–?5:00?PM|Thursday: 8:00?AM?–?5:00?PM|Friday: 8:00?AM?–?5:00?PM|Saturday: 8:00?AM?–?5:00?PM|Sunday: 8:00?AM?–?5:00?PM,3.9,75,tourist_attraction|point_of_interest|establishment,0878-6154-4618,10/13/2023 9:38:52.000 PM,10/13/2023 9:38:52.000 PM
46,Embung UII,-,"8C75+HHR, Krawitan, Umbulmartani, Kec. Ngemplak, Kabupaten Sleman, Daerah Istimewa Yogyakarta 55584, Indonesia",-7.686021399999998,110.4088992,18,Monday: Open 24 hours|Tuesday: Open 24 hours|Wednesday: Open 24 hours|Thursday: Open 24 hours|Friday: Open 24 hours|Saturday: Open 24 hours|Sunday: Open 24 hours,4.5,126,tourist_attraction|point_of_interest|establishment,-,10/13/2023 9:38:52.000 PM,10/13/2023 9:38:52.000 PM
47,sumber air kanjeng pengobatan,-,"P8JG+G3C, Dusun Krajan, Kedayunan, Kec. Kabat, Kabupaten Banyuwangi, Jawa Timur 68461, Indonesia",-8.268617599999999,114.3250994,15,-,5,1,tourist_attraction|point_of_interest|establishment,-,10/13/2023 9:38:52.000 PM,10/13/2023 9:38:52.000 PM
48,Bukit Patrum,-,"Mojopereng, Jimbung Lor, Krakitan, Kec. Bayat, Kabupaten Klaten, Jawa Tengah 57451, Indonesia",-7.7489788,110.6172412,33,-,4.1,508,park|tourist_attraction|point_of_interest|establishment,0857-4321-6005,10/13/2023 9:38:52.000 PM,10/13/2023 9:38:52.000 PM
49,TPR Balong,-,"RPX2+4R4, Piji, Balong, Kec. Girisubo, Kabupaten Gunung Kidul, Daerah Istimewa Yogyakarta 55883, Indonesia",-8.1522268,110.7020694,20,-,5,3,tourist_attraction|point_of_interest|establishment,-,10/13/2023 9:38:52.000 PM,10/13/2023 9:38:52.000 PM
50,Pantai Tebing Cluak'an,-,"RJMV+C8H, Pantai, Tepus, Kec. Tepus, Kabupaten Gunung Kidul, Daerah Istimewa Yogyakarta 55881, Indonesia",-8.1664354,110.6433515,20,Monday: Open 24 hours|Tuesday: Open 24 hours|Wednesday: Open 24 hours|Thursday: Open 24 hours|Friday: Open 24 hours|Saturday: Open 24 hours|Sunday: Open 24 hours,4.3,68,tourist_attraction|point_of_interest|establishment,-,10/13/2023 9:38:52.000 PM,10/13/2023 9:38:52.000 PM
51,Wisata Goa Alam Watu Payung,-,"JPW3+5WF, Jl. Bogohan, Bogoan, Rakitan, Kec. Madukara, Kab. Banjarnegara, Jawa Tengah 53482, Indonesia",-7.354553699999999,109.7048019,28,-,4.5,39,tourist_attraction|point_of_interest|establishment,-,10/13/2023 9:38:52.000 PM,10/13/2023 9:38:52.000 PM
52,Tugu Kalpataru,-,"Jl. Jend. Sudirman No.26, Donoharjo, Wuryorejo, Kec. Wonogiri, Kabupaten Wonogiri, Jawa Tengah 57614, Indonesia",-7.831668899999999,110.9210255,32,-,4.3,69,museum|tourist_attraction|point_of_interest|establishment,-,10/13/2023 9:38:52.000 PM,10/13/2023 9:38:52.000 PM
53,Candi pandawa Lima dieng,-,"JVJX+J93, Tegalrejo, Jaraksari, Kec. Wonosobo, Kabupaten Wonosobo, Jawa Tengah 56312, Indonesia",-7.3684995,109.8984085,29,-,5,2,tourist_attraction|point_of_interest|establishment,-,10/13/2023 9:38:52.000 PM,10/13/2023 9:38:52.000 PM
54,West Flood Canal Bridge,-,"Jl. Simongan No.16a, Ngemplak Simongan, Kec. Semarang Barat, Kota Semarang, Jawa Tengah 50148, Indonesia",-6.9908851,110.4024871,4,Monday: Open 24 hours|Tuesday: Open 24 hours|Wednesday: Open 24 hours|Thursday: Open 24 hours|Friday: Open 24 hours|Saturday: Open 24 hours|Sunday: Open 24 hours,4.5,1848,tourist_attraction|point_of_interest|establishment,-,10/13/2023 9:38:52.000 PM,10/13/2023 9:38:52.000 PM
55,Post 2 JEEP Kalibiru Pearl Menoreh,-,"Jl. Pengasih - Sermo, Kedungtangkil, Sendangsari, Kec. Pengasih, Kabupaten Kulon Progo, Daerah Istimewa Yogyakarta 55652, Indonesia",-7.8308389,110.1321321,19,Monday: 7:00?AM?–?5:00?PM|Tuesday: 7:00?AM?–?5:00?PM|Wednesday: 7:00?AM?–?5:00?PM|Thursday: 7:00?AM?–?5:00?PM|Friday: 7:00?AM?–?5:00?PM|Saturday: 7:00?AM?–?5:00?PM|Sunday: 7:00?AM?–?5:00?PM,4.2,201,tourist_attraction|point_of_interest|establishment,0815-6848-6333,10/13/2023 9:38:52.000 PM,10/13/2023 9:38:52.000 PM
56,Kampung Wisata Keramik Dinoyo,-,"Jl. Mt Haryono 9 No.336, Dinoyo, Kec. Lowokwaru, Kota Malang, Jawa Timur 65144, Indonesia",-7.9418156,112.6116907,6,Monday: 8:00?AM?–?3:00?PM|Tuesday: 8:00?AM?–?3:00?PM|Wednesday: 8:00?AM?–?3:00?PM|Thursday: 8:00?AM?–?3:00?PM|Friday: 8:00?AM?–?3:00?PM|Saturday: 8:00?AM?–?3:00?PM|Sunday: 8:00?AM?–?3:00?PM,4.4,656,tourist_attraction|point_of_interest|establishment,0812-3553-1979,10/13/2023 9:38:52.000 PM,10/13/2023 9:38:52.000 PM
57,Kuliner kampung porobungkil,-,"Unnamed Road, Q8GM+GW4, Dusun Krajan, Rejosari, Kec. Glagah, Kabupaten Banyuwangi, Jawa Timur 68432, Indonesia",-8.2237297,114.3348388,15,Monday: Closed|Tuesday: Closed|Wednesday: Closed|Thursday: Closed|Friday: Closed|Saturday: 5:30?–?10:00?PM|Sunday: Closed,5,17,tourist_attraction|point_of_interest|establishment,0853-3091-1268,10/13/2023 9:38:52.000 PM,10/13/2023 9:38:52.000 PM
58,"tanjakan sartono Kalibombong, Kab. Banjarnegara, Jawa Tengah",-,"tanjakan sartono, Margasari, Kalibombong, Kec. Kalibening, Kab. Banjarnegara, Jawa Tengah 53458, Indonesia",-7.2561684,109.6631869,28,-,4,1,tourist_attraction|point_of_interest|establishment,-,10/13/2023 9:38:52.000 PM,10/13/2023 9:38:52.000 PM
59,Kolam pancing gurame & lele Tirta Ayu,-,"67H3+5HQ, Krajan, Tamansari, Kec. Dringu, Kabupaten Probolinggo, Jawa Timur 67271, Indonesia",-7.772032199999999,113.2539874,12,Monday: 6:00?AM?–?5:00?PM|Tuesday: 6:00?AM?–?5:00?PM|Wednesday: 6:00?AM?–?5:00?PM|Thursday: 6:00?AM?–?5:00?PM|Friday: 6:00?AM?–?5:00?PM|Saturday: 6:00?AM?–?5:00?PM|Sunday: 6:00?AM?–?5:00?PM,4,3,tourist_attraction|point_of_interest|establishment,0852-0498-7398,10/13/2023 9:38:52.000 PM,10/13/2023 9:38:52.000 PM
60,Taman Wisata Matahari,"Kid-friendly water slides, splash pads & play structures around outdoor swimming pools & snack bars.","Jl. Raya Puncak Gadog, Leuwimalang, Kec. Cisarua, Kabupaten Bogor, Jawa Barat 16750, Indonesia",-6.656209199999999,106.9165672,8,Monday: 8:00?AM?–?4:00?PM|Tuesday: 8:00?AM?–?4:00?PM|Wednesday: 8:00?AM?–?4:00?PM|Thursday: 8:00?AM?–?4:00?PM|Friday: 8:00?AM?–?4:00?PM|Saturday: 8:00?AM?–?4:00?PM|Sunday: 8:00?AM?–?4:00?PM,4.1,11466,tourist_attraction|point_of_interest|establishment,(0251) 8252337,10/13/2023 9:38:52.000 PM,10/13/2023 9:38:52.000 PM
61,Taman Kota Wates,-,"45R6+J29, Terbah, Wates, Kec. Wates, Kabupaten Kulon Progo, Daerah Istimewa Yogyakarta 55651, Indonesia",-7.858471699999999,110.1600975,19,Monday: Open 24 hours|Tuesday: Open 24 hours|Wednesday: Open 24 hours|Thursday: Open 24 hours|Friday: Open 24 hours|Saturday: Open 24 hours|Sunday: Open 24 hours,4.5,420,tourist_attraction|park|point_of_interest|establishment,-,10/13/2023 9:38:52.000 PM,10/13/2023 9:38:52.000 PM
62,WANAGRO RESTO,-,"Unnamed Road, Dusun IV, Blambangan, Kec. Bawang, Kab. Banjarnegara, Jawa Tengah 53471, Indonesia",-7.385838400000001,109.6417593,28,Monday: 10:00?AM?–?9:00?PM|Tuesday: 10:00?AM?–?9:00?PM|Wednesday: 10:00?AM?–?9:00?PM|Thursday: 10:00?AM?–?9:00?PM|Friday: 10:00?AM?–?9:00?PM|Saturday: 10:00?AM?–?9:00?PM|Sunday: 10:00?AM?–?9:00?PM,4.6,79,restaurant|tourist_attraction|cafe|food|point_of_interest|establishment,0813-3330-5464,10/13/2023 9:38:52.000 PM,10/13/2023 9:38:52.000 PM
63,Bus pariwisata koblen buang ( Wawan),-,"RTM, Jl. Koblen Kidul, Bubutan, Kec. Bubutan, Surabaya, Jawa Timur 60174, Indonesia",-7.253610399999999,112.7331998,2,Monday: Open 24 hours|Tuesday: Open 24 hours|Wednesday: Open 24 hours|Thursday: Open 24 hours|Friday: Open 24 hours|Saturday: Open 24 hours|Sunday: Open 24 hours,4,86,tourist_attraction|travel_agency|point_of_interest|establishment,0812-3319-3541,10/13/2023 9:38:52.000 PM,10/13/2023 9:38:52.000 PM
64,Air Terjun Sendang Asih,-,"Unnamed Road, P3XC+CP6, Sidoluhur, Sepanjang, Kec. Glenmore, Kabupaten Banyuwangi, Jawa Timur 68466, Indonesia",-8.2514523,114.071756,15,-,5,2,tourist_attraction|point_of_interest|establishment,-,10/13/2023 9:38:52.000 PM,10/13/2023 9:38:52.000 PM
65,Besek Malang,-,"Jl. Taman Borobudur Tengah No.30, Tunjungsekar, Kec. Lowokwaru, Kota Malang, Jawa Timur 65142, Indonesia",-7.936237599999998,112.6346794,6,Monday: 8:00?AM?–?4:00?PM|Tuesday: 8:00?AM?–?4:00?PM|Wednesday: 8:00?AM?–?4:00?PM|Thursday: 8:00?AM?–?4:00?PM|Friday: 8:00?AM?–?4:00?PM|Saturday: 8:00?–?11:00?AM|Sunday: Closed,4.5,95,tourist_attraction|jewelry_store|store|food|point_of_interest|establishment,0821-3136-1862,10/13/2023 9:38:52.000 PM,10/13/2023 9:38:52.000 PM
66,Wisata Kali Baki,-,"9QPJ+7MJ, Krajan, Menuran, Kec. Baki, Kabupaten Sukoharjo, Jawa Tengah 57556, Indonesia",-7.6142818,110.7816274,7,Monday: 8:00?AM?–?10:00?PM|Tuesday: 8:00?AM?–?10:00?PM|Wednesday: 8:00?AM?–?10:00?PM|Thursday: 8:00?AM?–?10:00?PM|Friday: 8:00?AM?–?10:00?PM|Saturday: 8:00?AM?–?10:00?PM|Sunday: 8:00?AM?–?10:00?PM,3,5,tourist_attraction|point_of_interest|establishment,-,10/13/2023 9:38:52.000 PM,10/13/2023 9:38:52.000 PM
67,Taman Wisata Study Lingkungan Kota Probolinggo,-,"Jl. Basuki Rahmad, Mangunharjo, Kec. Mayangan, Kota Probolinggo, Jawa Timur 67217, Indonesia",-7.7481068,113.2346787,12,Monday: 7:00?AM?–?5:00?PM|Tuesday: 7:00?AM?–?5:00?PM|Wednesday: 7:00?AM?–?5:00?PM|Thursday: 7:00?AM?–?5:00?PM|Friday: Closed|Saturday: 7:00?AM?–?5:00?PM|Sunday: 7:00?AM?–?5:00?PM,4.2,1576,tourist_attraction|point_of_interest|establishment,(0335) 420662,10/13/2023 9:38:52.000 PM,10/13/2023 9:38:52.000 PM
68,Royal Water Adventure,-,"Jl. Raya Telukan No.KM 08, Dusun III, Telukan, Kec. Grogol, Kabupaten Sukoharjo, Jawa Tengah 57552, Indonesia",-7.6317226,110.8264961,7,Monday: 8:00?AM?–?6:00?PM|Tuesday: 8:00?AM?–?6:00?PM|Wednesday: 8:00?AM?–?6:00?PM|Thursday: 8:00?AM?–?6:00?PM|Friday: 8:00?AM?–?6:00?PM|Saturday: 8:00?AM?–?6:00?PM|Sunday: 8:00?AM?–?6:00?PM,3.9,1535,tourist_attraction|amusement_park|point_of_interest|establishment,(0271) 626743,10/13/2023 9:38:52.000 PM,10/13/2023 9:38:52.000 PM
69,Kpi mina sambimakmur,-,"Gg. Mangga No.42, Sambelegi Lor, Maguwoharjo, Kec. Depok, Kabupaten Sleman, Daerah Istimewa Yogyakarta 55281, Indonesia",-7.778004999999999,110.4379267,5,-,5,2,tourist_attraction|point_of_interest|establishment,-,10/13/2023 9:38:52.000 PM,10/13/2023 9:38:52.000 PM
70,Paintball Jupiter Jogja,-,"Jogja Adventure Zone, Aero Wisata Skadik 104, Jl. Maguwo, Karang Janbe, Banguntapan, Kec. Banguntapan, Kabupaten Bantul, Daerah Istimewa Yogyakarta 55198, Indonesia",-7.798218000000002,110.4200702,5,Monday: Closed|Tuesday: 8:00?AM?–?5:00?PM|Wednesday: 8:00?AM?–?5:00?PM|Thursday: 8:00?AM?–?5:00?PM|Friday: 8:00?AM?–?5:00?PM|Saturday: 8:00?AM?–?5:00?PM|Sunday: 8:00?AM?–?5:00?PM,4.5,665,tourist_attraction|point_of_interest|establishment,0812-2728-9989,10/13/2023 9:38:52.000 PM,10/13/2023 9:38:52.000 PM
71,Kandang Babi,-,"Jl. Indragiri No.b24, Dabag, Condongcatur, Kec. Depok, Kabupaten Sleman, Daerah Istimewa Yogyakarta 55281, Indonesia",-7.7666735,110.4051126,18,-,5,1,tourist_attraction|point_of_interest|establishment,-,10/13/2023 9:38:52.000 PM,10/13/2023 9:38:52.000 PM
72,AABagus Farm,-,"Jl. Bulutangkis No.121 C, Tasikmadu, Kec. Lowokwaru, Kota Malang, Jawa Timur 65143, Indonesia",-7.9171093,112.6277932,6,-,5,3,tourist_attraction|point_of_interest|establishment,-,10/13/2023 9:38:52.000 PM,10/13/2023 9:38:52.000 PM
73,Bukit Panorama,-,"9R64+25F, RT.02/RW.08, Pamoyanan, Kec. Bogor Sel., Kota Bogor, Jawa Barat 16136, Indonesia",-6.639941,106.8054297,8,-,4.5,255,tourist_attraction|point_of_interest|establishment,-,10/13/2023 9:38:52.000 PM,10/13/2023 9:38:52.000 PM
74,Jembatan Dusun Pucung Desa Seren,-,"Unnamed Road, 8X6H+PWC, Dusun I, Lugosobo, Kec. Gebang, Kabupaten Purworejo, Jawa Tengah 54191, Indonesia",-7.6881884,109.9797642,31,Monday: Open 24 hours|Tuesday: Open 24 hours|Wednesday: Open 24 hours|Thursday: Open 24 hours|Friday: Open 24 hours|Saturday: Open 24 hours|Sunday: Open 24 hours,5,4,tourist_attraction|point_of_interest|establishment,-,10/13/2023 9:38:52.000 PM,10/13/2023 9:38:52.000 PM
75,Pesiraman Tanjungtirto,-,"6F58+44P, Tanjung, Kalitirto, Kec. Berbah, Kabupaten Sleman, Daerah Istimewa Yogyakarta 55573, Indonesia",-7.792174100000002,110.4653262,5,-,5,1,tourist_attraction|point_of_interest|establishment,-,10/13/2023 9:38:52.000 PM,10/13/2023 9:38:52.000 PM
76,Embung Semawung,-,"722C+XG2, Sawah, Semawung, Kec. Purworejo, Kabupaten Purworejo, Jawa Tengah 54119, Indonesia",-7.747624,110.0212744,31,Monday: Closed|Tuesday: 2:00?PM?–?12:00?AM|Wednesday: 2:00?PM?–?12:00?AM|Thursday: 2:00?PM?–?12:00?AM|Friday: 2:00?PM?–?12:00?AM|Saturday: 2:00?PM?–?12:00?AM|Sunday: 2:00?PM?–?12:00?AM,4.5,102,tourist_attraction|point_of_interest|establishment,0813-2986-4616,10/13/2023 9:38:52.000 PM,10/13/2023 9:38:52.000 PM
77,Curug Ngigirigen,-,"PR3P+R38, Hutan, Binangun, Kec. Watumalang, Kabupaten Wonosobo, Jawa Tengah 56352, Indonesia",-7.295471999999998,109.8352176,28,-,3.9,10,tourist_attraction|point_of_interest|establishment,-,10/13/2023 9:38:52.000 PM,10/13/2023 9:38:52.000 PM
78,Kebun Botol,-,"Gg. 8A No.31, Tlogomas, Kec. Lowokwaru, Kota Malang, Jawa Timur 65144, Indonesia",-7.927236899999999,112.6034267,6,Monday: 9:00?AM?–?4:00?PM|Tuesday: 9:00?AM?–?4:00?PM|Wednesday: 9:00?AM?–?4:00?PM|Thursday: 9:00?AM?–?4:00?PM|Friday: 9:00?AM?–?4:00?PM|Saturday: 9:00?AM?–?4:00?PM|Sunday: 9:00?AM?–?4:00?PM,5,28,tourist_attraction|point_of_interest|establishment,0823-3110-8200,10/13/2023 9:38:52.000 PM,10/13/2023 9:38:52.000 PM
79,Pojok Benteng Wetan,-,"59P9+49Q, Jl. Sisingamangaraja, Keparakan, Kec. Mergangsan, Kota Yogyakarta, Daerah Istimewa Yogyakarta 55131, Indonesia",-7.814650800000001,110.3684854,5,Monday: Open 24 hours|Tuesday: Open 24 hours|Wednesday: Open 24 hours|Thursday: Open 24 hours|Friday: Open 24 hours|Saturday: Open 24 hours|Sunday: Open 24 hours,4.6,1120,tourist_attraction|point_of_interest|establishment,-,10/13/2023 9:38:52.000 PM,10/13/2023 9:38:52.000 PM
80,Masjid Rahmat Kembang Kuning,-,"Jl. Kembang Kuning No.79-81, Darmo, Kec. Wonokromo, Surabaya, Jawa Timur 60256, Indonesia",-7.2821045,112.729526,2,Monday: Open 24 hours|Tuesday: Open 24 hours|Wednesday: Open 24 hours|Thursday: Open 24 hours|Friday: Open 24 hours|Saturday: Open 24 hours|Sunday: Open 24 hours,4.8,2568,mosque|tourist_attraction|place_of_worship|point_of_interest|establishment,0899-3513-266,10/13/2023 9:38:52.000 PM,10/13/2023 9:38:52.000 PM
81,Vihara Tanah Putih,-,"Jl. Dr. Wahidin No.12, Jomblang, Kec. Candisari, Kota Semarang, Jawa Tengah 50257, Indonesia",-7.0105553,110.4319151,4,-,4.6,708,tourist_attraction|place_of_worship|point_of_interest|establishment,(024) 8315169,10/13/2023 9:38:52.000 PM,10/13/2023 9:38:52.000 PM
82,Pantai Ciliwung Indah,-,"9V52+7GX, Pandansari, Ciawi, Bogor Regency, West Java 16720, Indonesia",-6.641247300000001,106.8519836,8,-,4.9,7,tourist_attraction|point_of_interest|establishment,-,10/13/2023 9:38:52.000 PM,10/13/2023 9:38:52.000 PM
83,KOLAM PANCING SIDOREJO GITIK ROGOJAMPI,-,"P72V+MQF, Dusun Sidorejo, RT.1/RW.1, Dusun Sidomulyo, Gitik, Kec. Rogojampi, Kabupaten Banyuwangi, Jawa Timur, Indonesia",-8.2983008,114.29442,15,-,1,1,tourist_attraction|point_of_interest|establishment,0813-3433-8999,10/13/2023 9:38:52.000 PM,10/13/2023 9:38:52.000 PM
84,ESTHU GARDEN,-,"9WF6+786, Jl. Tengklik, RT.02/RW.03, Satu, Polokarto, Kec. Polokarto, Kabupaten Sukoharjo, Jawa Tengah, Indonesia",-7.6268291,110.9107788,7,Monday: 8:00?AM?–?4:00?PM|Tuesday: 8:00?AM?–?4:00?PM|Wednesday: 8:00?AM?–?4:00?PM|Thursday: 8:00?AM?–?4:00?PM|Friday: 8:00?AM?–?4:00?PM|Saturday: 8:00?AM?–?4:00?PM|Sunday: 8:00?AM?–?4:00?PM,3,2,tourist_attraction|point_of_interest|establishment,0877-3635-3529,10/13/2023 9:38:52.000 PM,10/13/2023 9:38:52.000 PM
85,Wisata Alam Kalongan,-,"R8R4+WC4, Dusun Krajan, Pesucen, Kec. Kalipuro, Kabupaten Banyuwangi, Jawa Timur 68455, Indonesia",-8.157742099999998,114.3060708,15,-,3,1,tourist_attraction|point_of_interest|establishment,0822-3400-3549,10/13/2023 9:38:52.000 PM,10/13/2023 9:38:52.000 PM
86,Mangrove Teluk Pangpang Kilikili,-,"G935+PV2, Dusun Tegalpare, Wringin Putih, Kec. Muncar, Kabupaten Banyuwangi, Jawa Timur 68472, Indonesia",-8.495728699999999,114.3596401,15,Monday: Open 24 hours|Tuesday: Open 24 hours|Wednesday: Open 24 hours|Thursday: Open 24 hours|Friday: Open 24 hours|Saturday: Open 24 hours|Sunday: Open 24 hours,4.1,29,tourist_attraction|point_of_interest|establishment,0853-3510-5407,10/13/2023 9:38:52.000 PM,10/13/2023 9:38:52.000 PM
87,Curug Putri Kencana,A hiking trail leads to this rainforest cascade with natural swimming pools & large boulders.,"Central Karang, Babakan Madang, Bogor Regency, West Java 16810, Indonesia",-6.597731099999999,106.9350111,8,Monday: 7:30?AM?–?5:00?PM|Tuesday: 7:00?AM?–?5:00?PM|Wednesday: 7:00?AM?–?5:00?PM|Thursday: 7:00?AM?–?5:00?PM|Friday: 7:00?AM?–?5:00?PM|Saturday: 7:30?AM?–?5:00?PM|Sunday: 8:00?AM?–?5:00?PM,4.4,1494,tourist_attraction|point_of_interest|establishment,-,10/13/2023 9:38:52.000 PM,10/13/2023 9:38:52.000 PM
88,Taman Tirto Agung,"Green space popular for exercise, with a climbing wall, play areas & stalls for varied street foods.","Jl. Tirto Agung No.77, Pedalangan, Kec. Banyumanik, Kota Semarang, Jawa Tengah 50268, Indonesia",-7.0643034,110.4272056,4,Monday: Open 24 hours|Tuesday: Open 24 hours|Wednesday: Open 24 hours|Thursday: Open 24 hours|Friday: Open 24 hours|Saturday: Open 24 hours|Sunday: Open 24 hours,4.4,8756,park|tourist_attraction|point_of_interest|establishment,-,10/13/2023 9:38:52.000 PM,10/13/2023 9:38:52.000 PM
89,Air Terjun Rafting oya,-,"3JGW+JRM, Gunungbang, Bejiharjo, Kec. Karangmojo, Kabupaten Gunung Kidul, Daerah Istimewa Yogyakarta 55891, Indonesia",-7.9234247,110.6470492,20,-,4.3,4,tourist_attraction|point_of_interest|establishment,-,10/13/2023 9:38:52.000 PM,10/13/2023 9:38:52.000 PM
90,Air Terjun Tempuran Sawah,-,"M2QW+XJ8, Jl. Nasional III, Dusun Krajan, Tegalharjo, Kec. Glenmore, Kabupaten Banyuwangi, Jawa Timur 68466, Indonesia",-8.3100899,114.0465631,15,-,5,1,tourist_attraction|point_of_interest|establishment,-,10/13/2023 9:38:52.000 PM,10/13/2023 9:38:52.000 PM
91,Probolinggo Municipal Government Museum,Garden with replica military aircraft & artifacts of city history on display in a colonial building.,"Jl. Suroyo No.25, Tisnonegaran, Kec. Kanigaran, Kota Probolinggo, Jawa Timur 67211, Indonesia",-7.751077699999999,113.2157441,12,Monday: Closed|Tuesday: 8:00?AM?–?2:00?PM|Wednesday: 8:00?AM?–?2:00?PM|Thursday: 8:00?AM?–?2:00?PM|Friday: 8:00?AM?–?2:00?PM|Saturday: 8:00?AM?–?2:00?PM|Sunday: 8:00?AM?–?2:00?PM,4.4,1467,museum|tourist_attraction|point_of_interest|establishment,-,10/13/2023 9:38:52.000 PM,10/13/2023 9:38:52.000 PM
92,Dinas Kearsipan Dan Perpustakaan Daerah Wonosobo,-,"Jl. Pangeran Diponegoro No.2, Wonosobo Timur, Wonosobo Tim., Kec. Wonosobo, Kabupaten Wonosobo, Jawa Tengah 56311, Indonesia",-7.359706399999999,109.9018958,29,Monday: 8:00?AM?–?4:00?PM|Tuesday: 8:00?AM?–?4:00?PM|Wednesday: 8:00?AM?–?4:00?PM|Thursday: 8:00?AM?–?4:00?PM|Friday: 8:00?–?11:00?AM|Saturday: 9:00?AM?–?12:00?PM|Sunday: 9:00?AM?–?12:00?PM,4.7,134,museum|tourist_attraction|point_of_interest|establishment,(0286) 324824,10/13/2023 9:38:52.000 PM,10/13/2023 9:38:52.000 PM
93,Rumah Nanas Bp. Budiyono,-,"Kadilobo rt 03, Kadilobo, Purwobinangun, Kec. Pakem, Kabupaten Sleman, Daerah Istimewa Yogyakarta, Indonesia",-7.671225100000001,110.3837069,18,-,5,3,tourist_attraction|point_of_interest|establishment,-,10/13/2023 9:38:52.000 PM,10/13/2023 9:38:52.000 PM
94,Air Terjun Raung Kumbo,-,"R4RM+6QR, Mangaran, Sumberarum, Kec. Songgon, Kabupaten Banyuwangi, Jawa Timur 68463, Indonesia",-8.1593952,114.1343863,15,-,4,2,tourist_attraction|point_of_interest|establishment,-,10/13/2023 9:38:52.000 PM,10/13/2023 9:38:52.000 PM
95,PERNIKAHAN GHALIH & LAVINA,-,"H6H9+VQC, Jl. Suramenggala gang eling 1, RT.02/RW.05, Rejasari, Kec. Purwokerto Bar., Kabupaten Banyumas, Jawa Tengah, Indonesia",-7.420318900000001,109.2193949,13,Monday: 9:00?AM?–?9:00?PM|Tuesday: 9:00?AM?–?9:00?PM|Wednesday: 9:00?AM?–?9:00?PM|Thursday: 9:00?AM?–?9:00?PM|Friday: 9:00?AM?–?9:00?PM|Saturday: 9:00?AM?–?9:00?PM|Sunday: Closed,5,2,tourist_attraction|point_of_interest|establishment,0896-3631-7703,10/13/2023 9:38:52.000 PM,10/13/2023 9:38:52.000 PM
96,Grojogan Sewu Waterfall,-,"64XP+688, Beteng, Jatimulyo, Kec. Girimulyo, Kabupaten Kulon Progo, Daerah Istimewa Yogyakarta 55674, Indonesia",-7.751962399999999,110.1358235,19,Monday: 8:00?AM?–?4:00?PM|Tuesday: 8:00?AM?–?4:00?PM|Wednesday: 8:00?AM?–?4:00?PM|Thursday: 8:00?AM?–?4:00?PM|Friday: 8:00?AM?–?4:00?PM|Saturday: 8:00?AM?–?4:00?PM|Sunday: 8:00?AM?–?4:00?AM,4.2,356,tourist_attraction|point_of_interest|establishment,0822-4342-4036,10/13/2023 9:38:52.000 PM,10/13/2023 9:38:52.000 PM
97,Tebet Eco Park,"Sizable riverfront green space with jogging paths, a small playground & weekend food kiosks.","Jl. Tebet Barat Raya, RT.1/RW.10, Tebet Bar., Kec. Tebet, Kota Jakarta Selatan, Daerah Khusus Ibukota Jakarta 12820, Indonesia",-6.2373489,106.8529248,9,"Monday: 6:00?–?11:00?AM, 1:00?–?6:00?PM|Tuesday: 6:00?–?11:00?AM, 1:00?–?6:00?PM|Wednesday: 6:00?–?11:00?AM, 1:00?–?6:00?PM|Thursday: 6:00?–?11:00?AM, 1:00?–?6:00?PM|Friday: 6:00?–?11:00?AM, 1:00?–?6:00?PM|Saturday: 6:00?–?11:00?AM, 1:00?–?6:00?PM|Sunday: 6:00?–?11:00?AM, 1:00?–?6:00?PM",4.7,19692,tourist_attraction|park|point_of_interest|establishment,(021) 5328454,10/13/2023 9:38:52.000 PM,10/13/2023 9:38:52.000 PM
98,Masjid agung semarang,-,"2C5C+XV9, Jl. Simpang Lima, Mugassari, Kec. Semarang Sel., Kota Semarang, Jawa Tengah, Indonesia",-6.990088300000001,110.4222302,4,-,4.8,126,tourist_attraction|point_of_interest|establishment,-,10/13/2023 9:38:52.000 PM,10/13/2023 9:38:52.000 PM
99,Kota Lama Banjarnegara,-,"JMHJ+66Q, Karang Gondang, Banjarkulon, Kec. Banjarmangu, Kab. Banjarnegara, Jawa Tengah 53452, Indonesia",-7.371914100000001,109.6806124,28,Monday: Open 24 hours|Tuesday: Open 24 hours|Wednesday: Open 24 hours|Thursday: Open 24 hours|Friday: Open 24 hours|Saturday: Open 24 hours|Sunday: Open 24 hours,5,1,tourist_attraction|point_of_interest|establishment,-,10/13/2023 9:38:52.000 PM,10/13/2023 9:38:52.000 PM
100,Brawijaya Museum,"Artifacts & exhibits on Indonesia's war of independence, including military weapons & tanks.","Jl. Besar Ijen No.25A, Gading Kasri, Kec. Klojen, Kota Malang, Jawa Timur 65115, Indonesia",-7.972132500000001,112.621209,6,Monday: 8:00?AM?–?3:00?PM|Tuesday: 8:00?AM?–?3:00?PM|Wednesday: 8:00?AM?–?3:00?PM|Thursday: 8:00?AM?–?3:00?PM|Friday: 8:00?AM?–?3:00?PM|Saturday: 8:00?AM?–?3:00?PM|Sunday: 8:00?AM?–?3:00?PM,4.5,6602,tourist_attraction|museum|point_of_interest|establishment,-,10/13/2023 9:38:52.000 PM,10/13/2023 9:38:52.000 PM
101,New_One Channel,-,"Unnamed Road, 45G9+629, Jurang Jero, Giri Peni, Kec. Wates, Kabupaten Kulon Progo, Daerah Istimewa Yogyakarta 55651, Indonesia",-7.874452199999999,110.1676221,19,Monday: Open 24 hours|Tuesday: Open 24 hours|Wednesday: Open 24 hours|Thursday: Open 24 hours|Friday: Open 24 hours|Saturday: Closed|Sunday: Closed,5,1,tourist_attraction|point_of_interest|establishment,0823-2846-5473,10/13/2023 9:38:52.000 PM,10/13/2023 9:38:52.000 PM
102,Kebun Buah Nglinggi,-,"7HWH+6VC, Dusun 2, Nglinggi, Kec. Klaten Sel., Kabupaten Klaten, Jawa Tengah 57422, Indonesia",-7.704444199999999,110.5796465,33,Monday: Open 24 hours|Tuesday: Open 24 hours|Wednesday: Open 24 hours|Thursday: Open 24 hours|Friday: Open 24 hours|Saturday: Open 24 hours|Sunday: Open 24 hours,5,1,tourist_attraction|point_of_interest|establishment,0818-0415-6623,10/13/2023 9:38:52.000 PM,10/13/2023 9:38:52.000 PM
103,Kedung Salam,-,"GG6M+C3X, Jalatunda 1, Jalatunda, Kec. Mandiraja, Kab. Banjarnegara, Jawa Tengah 53473, Indonesia",-7.4894179,109.5334185,28,-,5,1,tourist_attraction|point_of_interest|establishment,-,10/13/2023 9:38:52.000 PM,10/13/2023 9:38:52.000 PM
104,Waterpark Kalianget,-,"MW85+XWH, Anget, Kalianget, Kec. Wonosobo, Kabupaten Wonosobo, Jawa Tengah 56319, Indonesia",-7.332567699999999,109.9098548,29,Monday: 7:30?AM?–?5:00?PM|Tuesday: 7:30?AM?–?5:00?PM|Wednesday: 7:30?AM?–?5:00?PM|Thursday: 7:30?AM?–?5:00?PM|Friday: 7:30?AM?–?5:00?PM|Saturday: 7:00?AM?–?5:00?PM|Sunday: 7:00?AM?–?5:00?PM,2.9,12,tourist_attraction|point_of_interest|establishment,-,10/13/2023 9:38:52.000 PM,10/13/2023 9:38:52.000 PM
105,Jembatan Merah,-,"XC83+FMG, Tinjomoyo, Banyumanik, Semarang City, Central Java 50221, Indonesia",-7.0338202,110.4042178,4,-,4.3,504,tourist_attraction|point_of_interest|establishment,-,10/13/2023 9:38:52.000 PM,10/13/2023 9:38:52.000 PM
106,Taman Cai,-,"9R2X+J78, RT.04/RW.02, Sindangsari, Kec. Bogor Tim., Kota Bogor, Jawa Barat 16146, Indonesia",-6.6484656,106.8482047,8,-,4,2,tourist_attraction|point_of_interest|establishment,-,10/13/2023 9:38:52.000 PM,10/13/2023 9:38:52.000 PM
107,Rewah rewoh stalys,-,"7XPX+WG, Cidapur, Donan, Kec. Cilacap Tengah, Kabupaten Cilacap, Jawa Tengah 53213, Indonesia",-7.712684099999999,108.9987705,11,-,5,1,tourist_attraction|point_of_interest|establishment,-,10/13/2023 9:38:52.000 PM,10/13/2023 9:38:52.000 PM
108,View Photo. Apik,-,"5CJH+2HX, Sribit, Sendangtirto, Kec. Berbah, Kabupaten Sleman, Daerah Istimewa Yogyakarta 55573, Indonesia",-7.819883999999999,110.428986,5,-,5,3,tourist_attraction|point_of_interest|establishment,-,10/13/2023 9:38:52.000 PM,10/13/2023 9:38:52.000 PM
109,Curug Leuwi katomas,-,"Kp Jl. Cimandala, RT.004/007, Karang Tengah, Kec. Babakan Madang, Kabupaten Bogor, Jawa Barat 16810, Indonesia",-6.591145999999999,106.9247272,8,Monday: 6:00?AM?–?6:00?PM|Tuesday: 6:00?AM?–?6:00?PM|Wednesday: 6:00?AM?–?6:00?PM|Thursday: 6:00?AM?–?6:00?PM|Friday: 6:00?AM?–?6:00?PM|Saturday: 6:00?AM?–?6:00?PM|Sunday: 6:00?AM?–?6:00?PM,5,3,tourist_attraction|point_of_interest|establishment,-,10/13/2023 9:38:52.000 PM,10/13/2023 9:38:52.000 PM
110,Tugu Banjarnegara,-,"JM3W+686, Jl. Jenderal Ahmad Yani, Kutabanjarnegara, Krandegan, Kec. Banjarnegara, Kab. Banjarnegara, Jawa Tengah 53474, Indonesia",-7.396973600000001,109.6957682,28,Monday: Open 24 hours|Tuesday: Open 24 hours|Wednesday: Open 24 hours|Thursday: Open 24 hours|Friday: Open 24 hours|Saturday: Open 24 hours|Sunday: Open 24 hours,4.4,91,tourist_attraction|point_of_interest|establishment,-,10/13/2023 9:38:52.000 PM,10/13/2023 9:38:52.000 PM
111,Goa Tangis,-,"Unnamed Road, Sumur, Giripurwo, Kec. Purwosari, Kabupaten Gunung Kidul, Daerah Istimewa Yogyakarta 55872, Indonesia",-8.028023,110.4143237,20,Monday: 9:00?AM?–?5:00?PM|Tuesday: 9:00?AM?–?5:00?PM|Wednesday: 9:00?AM?–?5:00?PM|Thursday: 9:00?AM?–?5:00?PM|Friday: 9:00?AM?–?5:00?PM|Saturday: 9:00?AM?–?5:00?PM|Sunday: 9:00?AM?–?5:00?PM,5,1,tourist_attraction|point_of_interest|establishment,-,10/13/2023 9:38:52.000 PM,10/13/2023 9:38:52.000 PM
112,Ujung Pasir,-,"8HV6+769, Kalipait, Indonesia",-8.656841199999999,114.5606121,15,-,5,4,tourist_attraction|point_of_interest|establishment,-,10/13/2023 9:38:52.000 PM,10/13/2023 9:38:52.000 PM
113,Bukit Paniisan,-,"9WVG+7C4, Jl. Airpanas, Karang Tengah, Kec. Babakan Madang, Kabupaten Bogor, Jawa Barat 16810, Indonesia",-6.606870499999999,106.9260626,8,Monday: Open 24 hours|Tuesday: Open 24 hours|Wednesday: Open 24 hours|Thursday: Open 24 hours|Friday: Open 24 hours|Saturday: Open 24 hours|Sunday: Open 24 hours,4.8,369,tourist_attraction|point_of_interest|establishment,-,10/13/2023 9:38:52.000 PM,10/13/2023 9:38:52.000 PM
114,tebing kuniran village,-,"5449+8GV, Kuripan, Hargorejo, Kec. Kokap, Kabupaten Kulon Progo, Daerah Istimewa Yogyakarta 55653, Indonesia",-7.844126800000001,110.1187969,19,-,5,3,tourist_attraction|point_of_interest|establishment,-,10/13/2023 9:38:52.000 PM,10/13/2023 9:38:52.000 PM
115,Mahesa Jaya Adventure,-,"kebosungu 1, Kelurahan Dlingo, Kecamatan Dlingo, Kebosungu I, Dlingo, Kec. Dlingo, Kabupaten Bantul, Daerah Istimewa Yogyakarta 55783, Indonesia",-7.958957000000001,110.470734,20,Monday: 8:00?AM?–?4:00?PM|Tuesday: 8:00?AM?–?4:00?PM|Wednesday: 8:00?AM?–?4:00?PM|Thursday: 8:00?AM?–?4:00?PM|Friday: 8:00?AM?–?4:00?PM|Saturday: 8:00?AM?–?4:00?PM|Sunday: 8:00?AM?–?4:00?PM,4.2,54,tourist_attraction|point_of_interest|establishment,0812-5448-8488,10/13/2023 9:38:52.000 PM,10/13/2023 9:38:52.000 PM
116,Danau Aksan,-,"Jl. Aksan No.12, Sukahaji, Kec. Babakan Ciparay, Kota Bandung, Jawa Barat 40221, Indonesia",-6.9202808,107.5818992,3,-,5,1,tourist_attraction|point_of_interest|establishment,-,10/13/2023 9:38:52.000 PM,10/13/2023 9:38:52.000 PM
117,Luweng Ombo,-,"WGF3+53F, Mendak, Kanigoro, Kec. Saptosari, Kabupaten Gunung Kidul, Daerah Istimewa Yogyakarta 55871, Indonesia",-8.077074299999998,110.5026676,20,-,5,1,tourist_attraction|point_of_interest|establishment,-,10/13/2023 9:38:52.000 PM,10/13/2023 9:38:52.000 PM
118,Curug sebarat,-,"Unnamed Road, QRFR+CXW, Krajan, Pasurenan, Kec. Batur, Kab. Banjarnegara, Jawa Tengah 53456, Indonesia",-7.226397199999998,109.8424485,28,-,5,1,tourist_attraction|point_of_interest|establishment,-,10/13/2023 9:38:52.000 PM,10/13/2023 9:38:52.000 PM
119,Dam Blokagung,-,"H452+89X Dam Karangdoro, Kaligesing, Karangmulyo, Kec. Tegalsari, Kabupaten Banyuwangi, Jawa Timur 68485, Indonesia",-8.441625799999999,114.1009821,15,-,4.1,23,tourist_attraction|point_of_interest|establishment,0812-4981-5079,10/13/2023 9:38:52.000 PM,10/13/2023 9:38:52.000 PM
120,KAMDUR PARK,-,"Jl. Timbul Jaya, RT.6/RW.4, Duri Kosambi, Kecamatan Cengkareng, Kota Jakarta Barat, Daerah Khusus Ibukota Jakarta 11750, Indonesia",-6.157180500000001,106.7215559,10,Monday: 9:00?AM?–?4:30?PM|Tuesday: 9:00?AM?–?4:30?PM|Wednesday: 9:00?AM?–?4:30?PM|Thursday: 9:00?AM?–?4:30?PM|Friday: 1:00?–?4:30?PM|Saturday: 9:00?AM?–?4:30?PM|Sunday: 9:00?AM?–?4:30?PM,4,3,tourist_attraction|point_of_interest|establishment,0812-1233-3838,10/13/2023 9:38:52.000 PM,10/13/2023 9:38:52.000 PM
121,BUNDARAN SATU CANDI GOLF - SEMARANG,-,"XCHJ+3GM, Karanganyar Gunung, Candisari, Semarang City, Central Java 50255, Indonesia",-7.022292199999999,110.4313111,4,Monday: Open 24 hours|Tuesday: Open 24 hours|Wednesday: Open 24 hours|Thursday: Open 24 hours|Friday: Open 24 hours|Saturday: Open 24 hours|Sunday: Open 24 hours,5,1,tourist_attraction|point_of_interest|establishment,-,10/13/2023 9:38:52.000 PM,10/13/2023 9:38:52.000 PM
122,Tempat Santai Pinggir Kali Gusuran,-,"PQX9+M2P, Jl. Inspeksi, RT.2/RW.10, Kby. Lama Utara, Kec. Kby. Lama, Kota Jakarta Selatan, Daerah Khusus Ibukota Jakarta 12320, Indonesia",-6.2507923,106.7675725,9,Monday: Open 24 hours|Tuesday: Open 24 hours|Wednesday: Open 24 hours|Thursday: Open 24 hours|Friday: Open 24 hours|Saturday: Open 24 hours|Sunday: Open 24 hours,5,2,tourist_attraction|point_of_interest|establishment,-,10/13/2023 9:38:52.000 PM,10/13/2023 9:38:52.000 PM
123,Wisata Alam Bumimadukara,-,"Sugihwaras, Bumiharjo, Glenmore, Banyuwangi Regency, East Java 68466, Indonesia",-8.2580976,114.0751434,15,Monday: 7:00?AM?–?5:00?PM|Tuesday: 7:00?AM?–?5:00?PM|Wednesday: 7:00?AM?–?5:00?PM|Thursday: 7:00?AM?–?5:00?PM|Friday: 7:00?AM?–?5:00?PM|Saturday: 7:00?AM?–?5:00?PM|Sunday: 7:00?AM?–?5:00?PM,4.7,18,tourist_attraction|point_of_interest|establishment,-,10/13/2023 9:38:52.000 PM,10/13/2023 9:38:52.000 PM
124,Borobudur Sunrise Tours,-,"RT1/RW4, Jl. Temulawak No.40, Nologaten, Caturtunggal, Depok, Sleman Regency, Special Region of Yogyakarta 55281, Indonesia",-7.775632000000001,110.3990892,18,Monday: 8:00?AM?–?6:00?PM|Tuesday: 8:00?AM?–?8:00?PM|Wednesday: 8:00?AM?–?6:00?PM|Thursday: 8:00?AM?–?8:00?PM|Friday: 8:00?AM?–?8:00?PM|Saturday: 8:00?AM?–?8:00?PM|Sunday: 8:00?AM?–?6:00?PM,4.6,31,tourist_attraction|travel_agency|point_of_interest|establishment,0811-2640-967,10/13/2023 9:38:52.000 PM,10/13/2023 9:38:52.000 PM
125,GALAPUNG KARYAWAN 4,-,"1, Jl. Karyawan 4 No.36, RT.003/RW.001, Karang Tim., Kec. Karang Tengah, Kota Tangerang, Banten 15157, Indonesia",-6.2094432,106.7153691,10,-,3.7,3,tourist_attraction|point_of_interest|establishment,0895-3321-55687,10/13/2023 9:38:52.000 PM,10/13/2023 9:38:52.000 PM
126,Taman Singha Merjosari,-,"Jl. Mertojoyo Selatan Blk. B No.20, Merjosari, Kec. Lowokwaru, Kota Malang, Jawa Timur 65144, Indonesia",-7.9451478,112.6032275,6,Monday: Open 24 hours|Tuesday: Open 24 hours|Wednesday: Open 24 hours|Thursday: Open 24 hours|Friday: Open 24 hours|Saturday: Open 24 hours|Sunday: Open 24 hours,4.5,8458,park|tourist_attraction|point_of_interest|establishment,-,10/13/2023 9:38:52.000 PM,10/13/2023 9:38:52.000 PM
127,Pakjero Spot,-,"Kedungsogo, Kedungsari, Kec. Pengasih, Kabupaten Kulon Progo, Daerah Istimewa Yogyakarta 55652, Indonesia",-7.8666987,110.1931755,19,"Monday: 9:00?AM?–?4:00?PM|Tuesday: 9:00?AM?–?4:00?PM, 8:00?PM?–?8:00?AM|Wednesday: 9:00?AM?–?4:00?PM|Thursday: 9:00?AM?–?4:00?PM, 8:00?PM?–?8:00?AM|Friday: 9:00?AM?–?4:00?PM, 8:00?PM?–?8:00?AM|Saturday: 9:00?AM?–?4:00?PM|Sunday: 9:00?AM?–?4:00?PM, 8:00?PM?–?8:00?AM",4.9,16,tourist_attraction|point_of_interest|establishment,0877-1779-6871,10/13/2023 9:38:52.000 PM,10/13/2023 9:38:52.000 PM
128,Pantai Jungwok,-,"RP26+VW, Pendowo, Jepitu, Kec. Girisubo, Kabupaten Gunung Kidul, Daerah Istimewa Yogyakarta 55883, Indonesia",-8.1978223,110.7123461,20,Monday: Open 24 hours|Tuesday: Open 24 hours|Wednesday: Open 24 hours|Thursday: Open 24 hours|Friday: Open 24 hours|Saturday: Open 24 hours|Sunday: Open 24 hours,4.6,846,tourist_attraction|lodging|point_of_interest|establishment,-,10/13/2023 9:38:52.000 PM,10/13/2023 9:38:52.000 PM
129,Spot hunting kereta api tikungan rasam,-,"H6P9+CV2, Gg. Rasam, Kober, Kec. Purwokerto Bar., Kabupaten Banyumas, Jawa Tengah, Indonesia",-7.4139886,109.2196389,13,-,5,1,tourist_attraction|point_of_interest|establishment,-,10/13/2023 9:38:52.000 PM,10/13/2023 9:38:52.000 PM
130,Wisata Batu Exotic,-,"Pendem, Tegaltirto, Kec. Berbah, Kabupaten Sleman, Daerah Istimewa Yogyakarta 55573, Indonesia",-7.820540299999998,110.4523638,5,Monday: 6:00?AM?–?6:00?PM|Tuesday: 6:00?AM?–?6:00?PM|Wednesday: 6:00?AM?–?6:00?PM|Thursday: 6:00?AM?–?6:00?PM|Friday: 6:00?AM?–?6:00?PM|Saturday: 6:00?AM?–?6:00?PM|Sunday: 6:00?AM?–?6:00?PM,4.5,47,tourist_attraction|point_of_interest|establishment,0813-2969-0065,10/13/2023 9:38:52.000 PM,10/13/2023 9:38:52.000 PM
131,Agro Tourism Bhumi Merapi,"Agricultural park where visitors can milk goats, feed rabbits & take selfies in a mini Santorini.","Jl. Kaliurang No.Km.20, Sawungan, Hargobinangun, Kec. Pakem, Kabupaten Sleman, Daerah Istimewa Yogyakarta 55582, Indonesia",-7.640075599999998,110.4264098,18,Monday: 9:00?AM?–?5:00?PM|Tuesday: 9:00?AM?–?5:00?PM|Wednesday: 9:00?AM?–?5:00?PM|Thursday: 9:00?AM?–?5:00?PM|Friday: 9:00?AM?–?5:00?PM|Saturday: 9:00?AM?–?5:00?PM|Sunday: 9:00?AM?–?5:00?PM,4.5,13036,tourist_attraction|zoo|restaurant|food|point_of_interest|establishment,0816-680-515,10/13/2023 9:38:52.000 PM,10/13/2023 9:38:52.000 PM
132,Tpt camp,-,"Unnamed Road, 3MR2+MH6, Area Hutan, Nglipar, Kec. Nglipar, Kabupaten Gunung Kidul, Daerah Istimewa Yogyakarta 55852, Indonesia",-7.908325899999999,110.6513863,20,-,5,1,tourist_attraction|point_of_interest|establishment,-,10/13/2023 9:38:52.000 PM,10/13/2023 9:38:52.000 PM
133,Rental Mobil Jams Transport,-,"Perumahan Griya Tirtanirmala Asri, D9, Bekelan, Tirtonirmolo, Kec. Kasihan, Kabupaten Bantul, Daerah Istimewa Yogyakarta 55184, Indonesia",-7.814223000000001,110.3414914,5,Monday: Open 24 hours|Tuesday: Open 24 hours|Wednesday: Open 24 hours|Thursday: Open 24 hours|Friday: Open 24 hours|Saturday: Open 24 hours|Sunday: Open 24 hours,4.7,29,car_rental|tourist_attraction|storage|travel_agency|local_government_office|point_of_interest|establishment,0813-9375-0164,10/13/2023 9:38:52.000 PM,10/13/2023 9:38:52.000 PM
134,Kampung Mina Padi Samberembe,-,"Samberembe, Candibinangun, Kec. Pakem, Kabupaten Sleman, Daerah Istimewa Yogyakarta 55582, Indonesia",-7.671260600000001,110.3975473,18,Monday: 7:00?AM?–?5:00?PM|Tuesday: 7:00?AM?–?5:00?PM|Wednesday: 7:00?AM?–?5:00?PM|Thursday: 7:00?AM?–?5:00?PM|Friday: 7:00?AM?–?5:00?PM|Saturday: 7:00?AM?–?5:00?PM|Sunday: 7:00?AM?–?5:00?PM,4.7,279,tourist_attraction|point_of_interest|establishment,0856-4139-0742,10/13/2023 9:38:52.000 PM,10/13/2023 9:38:52.000 PM
135,Kawasan Perkopian Sudimoro,-,"3J8H+GR9, Jl. Ikan Tombro, Gembrung, Mojolangu, Kec. Lowokwaru, Kota Malang, Jawa Timur 65142, Indonesia",-7.9337203,112.6296228,6,-,5,1,tourist_attraction|point_of_interest|establishment,-,10/13/2023 9:38:52.000 PM,10/13/2023 9:38:52.000 PM
136,Dalem Krikilan Menoreh View,-,"65XR+4W3, Jl. Dusun Krikil, Tileng, Pendoworejo, Kec. Girimulyo, Kabupaten Kulon Progo, Daerah Istimewa Yogyakarta 55674, Indonesia",-7.7522461,110.1923045,19,-,3,2,tourist_attraction|point_of_interest|establishment,-,10/13/2023 9:38:52.000 PM,10/13/2023 9:38:52.000 PM
137,Taman Budaya Sentul City,"Upbeat, forest theme park with an obstacle course, playground & horse-riding, plus casual dining.","Jl. Siliwangi No.1, Sumur Batu, Kec. Babakan Madang, Kabupaten Bogor, Jawa Barat 16810, Indonesia",-6.5840022,106.8827827,8,Monday: 8:00?AM?–?5:00?PM|Tuesday: 8:00?AM?–?5:00?PM|Wednesday: 8:00?AM?–?5:00?PM|Thursday: 8:00?AM?–?5:00?PM|Friday: 8:00?AM?–?5:00?PM|Saturday: 8:00?AM?–?5:00?PM|Sunday: 8:00?AM?–?5:00?PM,4.5,18489,tourist_attraction|point_of_interest|establishment,(021) 87961579,10/13/2023 9:38:52.000 PM,10/13/2023 9:38:52.000 PM
138,Brahminy Kite Statue,-,"RP48+VXF, South Kembangan, Kembangan, West Jakarta City, Jakarta 11610, Indonesia",-6.1928055,106.7174159,10,-,3.6,16,tourist_attraction|point_of_interest|establishment,-,10/13/2023 9:38:52.000 PM,10/13/2023 9:38:52.000 PM
139,Wisata punthuk kepuh,-,"Jl. Kepuh Sari, RT.08/RW.02, Kepuh Sari, Katongan, Kec. Nglipar, Kabupaten Gunung Kidul, Daerah Istimewa Yogyakarta 55852, Indonesia",-7.8659968,110.6388211,20,Monday: 4:00?AM?–?6:00?PM|Tuesday: 4:00?AM?–?6:00?PM|Wednesday: 4:00?AM?–?6:00?PM|Thursday: 4:00?AM?–?6:00?PM|Friday: Closed|Saturday: 4:00?AM?–?6:00?PM|Sunday: 4:00?AM?–?6:00?PM,4.3,118,tourist_attraction|point_of_interest|establishment,0822-2116-3661,10/13/2023 9:38:52.000 PM,10/13/2023 9:38:52.000 PM
140,Pemancingan Sumber Mas,-,"9VXJ+79J, Goresan Rw. 8, Demakan, Kec. Mojolaban, Kabupaten Sukoharjo, Jawa Tengah, Indonesia",-7.601797899999999,110.8808767,7,Monday: Open 24 hours|Tuesday: Open 24 hours|Wednesday: Open 24 hours|Thursday: Open 24 hours|Friday: Open 24 hours|Saturday: Open 24 hours|Sunday: Open 24 hours,5,4,tourist_attraction|point_of_interest|establishment,0817-7412-4599,10/13/2023 9:38:52.000 PM,10/13/2023 9:38:52.000 PM
141,Air Terjun Batu Raung,-,"R4MF+52C, Kp. Anyar, Sumberarum, Kec. Songgon, Kabupaten Banyuwangi, Jawa Timur 68463, Indonesia",-8.1670593,114.1225189,15,-,4.7,3,tourist_attraction|point_of_interest|establishment,-,10/13/2023 9:38:52.000 PM,10/13/2023 9:38:52.000 PM
142,Suaka Marga Satwa Sermo,-,"54GC+7W3, Jl. Lkr. Sermo, Sremo Lor, Hargowilis, Kec. Kokap, Kabupaten Kulon Progo, Daerah Istimewa Yogyakarta 55653, Indonesia",-7.8243731,110.1222868,19,Monday: Open 24 hours|Tuesday: Open 24 hours|Wednesday: Open 24 hours|Thursday: Open 24 hours|Friday: Open 24 hours|Saturday: Open 24 hours|Sunday: Open 24 hours,4.6,10,tourist_attraction|point_of_interest|establishment,-,10/13/2023 9:38:52.000 PM,10/13/2023 9:38:52.000 PM
143,Monumen of Pesawat GAF Nomad TNI-AL P830,-,"66X8+H66, Tisnonegaran, Kanigaran, Probolinggo City, East Java 67211, Indonesia",-7.7510827,113.2155238,12,Monday: Open 24 hours|Tuesday: Open 24 hours|Wednesday: Open 24 hours|Thursday: Open 24 hours|Friday: Open 24 hours|Saturday: Open 24 hours|Sunday: Open 24 hours,4.8,13,tourist_attraction|point_of_interest|establishment,-,10/13/2023 9:38:52.000 PM,10/13/2023 9:38:52.000 PM
144,Travel Protection Forest Watoe Gembel,-,"Jalan Clereng-Tamanan, Girinyono, Sendangsari, Kec. Pengasih, Kabupaten Kulon Progo, Daerah Istimewa Yogyakarta 55611, Indonesia",-7.8130168,110.1412954,19,Monday: 8:00?AM?–?10:00?PM|Tuesday: 8:00?AM?–?10:00?PM|Wednesday: 8:00?AM?–?10:00?PM|Thursday: 8:00?AM?–?10:00?PM|Friday: 8:00?AM?–?10:00?PM|Saturday: 8:00?AM?–?10:00?PM|Sunday: 8:00?AM?–?10:00?PM,4.1,43,tourist_attraction|point_of_interest|establishment,0857-2958-7459,10/13/2023 9:38:52.000 PM,10/13/2023 9:38:52.000 PM
145,"Air Terjun Ompak Telu, Curah Lele",-,"G378+GCX, Krajan, Barurejo, Kec. Siliragung, Kabupaten Banyuwangi, Jawa Timur 68488, Indonesia",-8.4861405,114.0661197,15,Monday: 6:00?AM?–?6:00?PM|Tuesday: 6:00?AM?–?6:00?PM|Wednesday: 6:00?AM?–?6:00?PM|Thursday: 6:00?AM?–?6:00?PM|Friday: 6:00?AM?–?6:00?PM|Saturday: 6:00?AM?–?6:00?PM|Sunday: 6:00?AM?–?6:00?PM,4.1,14,tourist_attraction|point_of_interest|establishment,-,10/13/2023 9:38:52.000 PM,10/13/2023 9:38:52.000 PM
146,Van Kcier Family Bike - BALE KCIER - Komunitas Sepeda Tangerang,-,"Jl. KH. Moh. Kup_III, RT.004/RW.002, Pinang, Kec. Pinang, Kota Tangerang, Banten 15145, Indonesia",-6.218983799999999,106.6890764,10,Monday: 6:00?AM?–?11:00?PM|Tuesday: 6:00?AM?–?11:00?PM|Wednesday: 6:00?AM?–?11:00?PM|Thursday: 6:00?AM?–?11:00?PM|Friday: 6:00?AM?–?12:00?AM|Saturday: 6:00?AM?–?12:00?AM|Sunday: 6:00?AM?–?11:30?PM,4.9,22,tourist_attraction|park|parking|amusement_park|point_of_interest|establishment,-,10/13/2023 9:38:52.000 PM,10/13/2023 9:38:52.000 PM
147,Taman Wisata Bendungan Sido Rahardjo,-,"Jl. Pelem Kidul, Pelem, Baturetno, Kec. Banguntapan, Kabupaten Bantul, Daerah Istimewa Yogyakarta 55197, Indonesia",-7.803561999999999,110.4223004,5,Monday: 3:00?–?5:00?PM|Tuesday: 3:00?–?5:00?PM|Wednesday: 3:00?–?5:00?PM|Thursday: 3:00?–?5:00?PM|Friday: 3:00?–?5:00?PM|Saturday: 8:00?AM?–?5:00?PM|Sunday: 8:00?AM?–?5:00?PM,5,5,tourist_attraction|point_of_interest|establishment,0813-2550-6766,10/13/2023 9:38:52.000 PM,10/13/2023 9:38:52.000 PM
148,Embung Pakembinangun,-,"8CW8+89F, Area Sawah, Pakembinangun, Kec. Pakem, Kabupaten Sleman, Daerah Istimewa Yogyakarta 55582, Indonesia",-7.6541987,110.415932,18,Monday: Open 24 hours|Tuesday: Open 24 hours|Wednesday: Open 24 hours|Thursday: Open 24 hours|Friday: Open 24 hours|Saturday: Open 24 hours|Sunday: Open 24 hours,4.3,153,tourist_attraction|park|point_of_interest|establishment,-,10/13/2023 9:38:52.000 PM,10/13/2023 9:38:52.000 PM
149,Terminal Buku Pustaka Sarwaga,-,"Jl. Jomblang Sari No.4, Jomblang, Kec. Candisari, Kota Semarang, Jawa Tengah 50256, Indonesia",-7.0096491,110.434191,4,-,4.4,16,tourist_attraction|museum|point_of_interest|establishment,(024) 8441149,10/13/2023 9:38:52.000 PM,10/13/2023 9:38:52.000 PM
150,Gardu Pandang Bukit Si Punthuk,-,"72MW+CWQ, Sawah&Ladang, Sidorejo, Kec. Purworejo, Kabupaten Purworejo, Jawa Tengah 54119, Indonesia",-7.7169175,110.0464154,31,-,5,4,tourist_attraction|point_of_interest|establishment,-,10/13/2023 9:38:52.000 PM,10/13/2023 9:38:52.000 PM
151,Guo Pucung,-,"WCX4+4V, Srondol Kulon, Banyumanik, Semarang City, Central Java 50263, Indonesia",-7.052238399999999,110.4071987,4,-,5,3,tourist_attraction|point_of_interest|establishment,-,10/13/2023 9:38:52.000 PM,10/13/2023 9:38:52.000 PM
152,Sewa motor seturan perumnas jogja,-,"Jln perumnas blok F No F5A ConCat, Ngropoh, Condongcatur, Kec. Depok, Kabupaten Sleman, Daerah Istimewa Yogyakarta, Indonesia",-7.764573699999999,110.4063928,18,Monday: 7:00?AM?–?9:00?PM|Tuesday: 7:00?AM?–?9:00?PM|Wednesday: 7:00?AM?–?9:00?PM|Thursday: 7:00?AM?–?9:00?PM|Friday: 7:00?AM?–?10:00?PM|Saturday: 7:00?AM?–?8:00?PM|Sunday: 7:00?AM?–?10:00?PM,5,41,tourist_attraction|point_of_interest|establishment,0877-3937-6663,10/13/2023 9:38:52.000 PM,10/13/2023 9:38:52.000 PM
153,Museum Dolly,-,"A No.1, Jl. Putat Jaya C - Barat VI, Putat Jaya, Kec. Sawahan, Surabaya, Jawa Timur 60255, Indonesia",-7.277780699999998,112.7207076,2,-,4.3,76,museum|tourist_attraction|point_of_interest|establishment,-,10/13/2023 9:38:52.000 PM,10/13/2023 9:38:52.000 PM
154,Pantai Ngungap,-,"Wonotoro, Pucung, Kec. Girisubo, Kabupaten Gunung Kidul, Daerah Istimewa Yogyakarta 55883, Indonesia",-8.1962324,110.7684973,20,Monday: Open 24 hours|Tuesday: Open 24 hours|Wednesday: Open 24 hours|Thursday: Open 24 hours|Friday: Open 24 hours|Saturday: Open 24 hours|Sunday: Open 24 hours,4.4,210,tourist_attraction|point_of_interest|establishment,-,10/13/2023 9:38:52.000 PM,10/13/2023 9:38:52.000 PM
155,BASECAMP TREKKING,-,"Jl paradise park, Bojong Koneng, Kec. Babakan Madang, Kabupaten Bogor, Jawa Barat 16810, Indonesia",-6.624801799999999,106.9057122,8,Monday: 8:00?AM?–?5:00?PM|Tuesday: 8:00?AM?–?5:00?PM|Wednesday: 8:00?AM?–?5:00?PM|Thursday: 8:00?AM?–?5:00?PM|Friday: 8:00?AM?–?5:00?PM|Saturday: 8:00?AM?–?5:00?PM|Sunday: 8:00?AM?–?5:00?PM,5,3,tourist_attraction|point_of_interest|establishment,0857-8145-1858,10/13/2023 9:38:52.000 PM,10/13/2023 9:38:52.000 PM
156,Taman agro wisata klayar,-,"4M54+92H, Gojo, Kedungpoh, Kec. Nglipar, Kabupaten Gunung Kidul, Daerah Istimewa Yogyakarta 55852, Indonesia",-7.8915526,110.6551096,20,Monday: 6:00?AM?–?5:00?PM|Tuesday: 6:00?AM?–?5:00?PM|Wednesday: 6:00?AM?–?5:00?PM|Thursday: 6:00?AM?–?5:00?PM|Friday: 6:00?AM?–?5:00?PM|Saturday: 6:00?AM?–?5:00?PM|Sunday: 6:00?AM?–?5:00?PM,5,6,tourist_attraction|point_of_interest|establishment,-,10/13/2023 9:38:52.000 PM,10/13/2023 9:38:52.000 PM
157,Sida Asih Kutawaru,-,"Jl. Nusa Indah, Jojok Kulon, Kutawaru, Kec. Cilacap Tengah, Kabupaten Cilacap, Jawa Tengah 53225, Indonesia",-7.706602399999999,108.9741901,11,Monday: 7:30?AM?–?5:00?PM|Tuesday: 7:00?AM?–?5:00?PM|Wednesday: 7:00?AM?–?5:00?PM|Thursday: 7:00?AM?–?5:00?PM|Friday: 7:30?AM?–?5:00?PM|Saturday: 7:30?AM?–?5:00?PM|Sunday: 7:30?AM?–?5:00?PM,5,3,tourist_attraction|point_of_interest|establishment,0831-0279-6551,10/13/2023 9:38:52.000 PM,10/13/2023 9:38:52.000 PM
158,Tourism Village Osing,Cultural traditions of the Osing tribe are on display at this modest village with pools & lodging.,"Dusun Krajan, Kemiren, Kec. Glagah, Kabupaten Banyuwangi, Jawa Timur 68432, Indonesia",-8.203592199999997,114.3203411,15,Monday: 7:00?AM?–?5:00?PM|Tuesday: 7:00?AM?–?5:00?PM|Wednesday: 7:00?AM?–?5:00?PM|Thursday: 7:00?AM?–?5:00?PM|Friday: 7:00?AM?–?5:00?PM|Saturday: 7:00?AM?–?5:00?PM|Sunday: 7:00?AM?–?5:00?PM,4.2,1529,tourist_attraction|point_of_interest|establishment,-,10/13/2023 9:38:52.000 PM,10/13/2023 9:38:52.000 PM
159,Taman Kuliner Condongcatur,-,"69VV+QQM, Jl. Taman Kuliner Jl. Anggajaya III, Gejayan, Condongcatur, Kec. Depok, Kabupaten Sleman, Daerah Istimewa Yogyakarta 55283, Indonesia",-7.7554018,110.3944652,18,Monday: 5:00?AM?–?10:00?PM|Tuesday: 5:00?AM?–?10:00?PM|Wednesday: 5:00?AM?–?10:00?PM|Thursday: 5:00?AM?–?10:00?PM|Friday: 5:00?AM?–?10:00?PM|Saturday: 5:00?AM?–?10:00?PM|Sunday: 5:00?AM?–?10:00?PM,4.4,123,tourist_attraction|point_of_interest|establishment,-,10/13/2023 9:38:52.000 PM,10/13/2023 9:38:52.000 PM
160,Monumen Pahlawan Trip,-,"2JJF+M3X, Jl. Pahlawan Trip, Oro-oro Dowo, Kec. Klojen, Kota Malang, Jawa Timur 65119, Indonesia",-7.968268999999999,112.6227415,6,Monday: Open 24 hours|Tuesday: Open 24 hours|Wednesday: Open 24 hours|Thursday: Open 24 hours|Friday: Open 24 hours|Saturday: Open 24 hours|Sunday: Open 24 hours,4.6,46,tourist_attraction|cemetery|point_of_interest|establishment,-,10/13/2023 9:38:52.000 PM,10/13/2023 9:38:52.000 PM
161,Perkebunan Kali Klatak,-,"Gombengsari, V899+7VG, Kalipuro, Gombeng, Gombengsari, Banyuwangi, Kabupaten Banyuwangi, Jawa Timur 68455, Indonesia",-8.131822099999999,114.3196962,15,Monday: Open 24 hours|Tuesday: Open 24 hours|Wednesday: Open 24 hours|Thursday: Open 24 hours|Friday: Open 24 hours|Saturday: Open 24 hours|Sunday: Open 24 hours,4.3,155,tourist_attraction|point_of_interest|establishment,-,10/13/2023 9:38:52.000 PM,10/13/2023 9:38:52.000 PM
162,Ngigir View,-,"JVFP+JH, Sawah Dan Hutan, Pacarmulyo, Leksono, Wonosobo Regency, Central Java, Indonesia",-7.3759331,109.8864669,29,-,5,1,tourist_attraction|point_of_interest|establishment,-,10/13/2023 9:38:52.000 PM,10/13/2023 9:38:52.000 PM
163,PASAR SEJATI,-,"Sidodadi, Karetan, Kec. Purwoharjo, Kabupaten Banyuwangi, Jawa Timur 68483, Indonesia",-8.5115877,114.2262432,15,-,5,5,tourist_attraction|point_of_interest|establishment,-,10/13/2023 9:38:52.000 PM,10/13/2023 9:38:52.000 PM
164,Fitri cofi,-,"V83C+59, Jl. Sumberwaru, Gombeng, Gombengsari, Kec. Kalipuro, Kabupaten Banyuwangi, Jawa Timur 68455, Indonesia",-8.1535808,114.3281217,15,-,2,1,tourist_attraction|point_of_interest|establishment,-,10/13/2023 9:38:52.000 PM,10/13/2023 9:38:52.000 PM
165,Curug Naga,"Body rafting, canyoning & swimming at a waterfall accessed by hiking through a river gorge.","Desa Citamiang Megamendung Megamendung, Megamendung, Kec. Megamendung, Kabupaten Bogor, Jawa Barat 16110, Indonesia",-6.6493339,106.9428209,8,Monday: 8:00?AM?–?5:00?PM|Tuesday: 8:00?AM?–?5:00?PM|Wednesday: 8:00?AM?–?5:00?PM|Thursday: 8:00?AM?–?5:00?PM|Friday: 8:00?AM?–?5:00?PM|Saturday: 8:00?AM?–?5:00?PM|Sunday: 8:00?AM?–?5:00?PM,4.5,592,tourist_attraction|point_of_interest|establishment,0818-0212-3179,10/13/2023 9:38:52.000 PM,10/13/2023 9:38:52.000 PM
166,Embung Kaliaji,-,"WONOKERTO, TURI, SLEMAN, RT.003/RW.028, Sangurejo, Donokerto, Kec. Turi, Kabupaten Sleman, Daerah Istimewa Yogyakarta 55551, Indonesia",-7.648711499999998,110.3760636,18,Monday: 6:00?AM?–?10:00?PM|Tuesday: 6:00?AM?–?10:00?PM|Wednesday: 6:00?AM?–?10:00?PM|Thursday: 6:00?AM?–?10:00?PM|Friday: 6:00?AM?–?10:00?PM|Saturday: 6:00?AM?–?10:00?PM|Sunday: 6:00?AM?–?10:00?PM,4.4,1462,tourist_attraction|point_of_interest|establishment,-,10/13/2023 9:38:52.000 PM,10/13/2023 9:38:52.000 PM
167,"Wahana ceria,Kolam Bermain Anak",-,"549M+G7M, Ringin Ardi, Karangsari, Kec. Pengasih, Kabupaten Kulon Progo, Daerah Istimewa Yogyakarta 55652, Indonesia",-7.831167900000001,110.1331681,19,-,4.8,4,tourist_attraction|point_of_interest|establishment,0817-5422-506,10/13/2023 9:38:52.000 PM,10/13/2023 9:38:52.000 PM
168,Giri Asih Waterfall,-,"R5F4+JP5, Bayurejo, Bayu, Kec. Songgon, Kabupaten Banyuwangi, Jawa Timur 68463, Indonesia",-8.175977300000001,114.1568699,15,Monday: Open 24 hours|Tuesday: Open 24 hours|Wednesday: Open 24 hours|Thursday: Open 24 hours|Friday: Open 24 hours|Saturday: Open 24 hours|Sunday: Open 24 hours,4.2,14,tourist_attraction|point_of_interest|establishment,-,10/13/2023 9:38:52.000 PM,10/13/2023 9:38:52.000 PM
169,Kali Cinta Suci,-,"9WX5+4CH, Jl. Bojongkoneng, Bojong Koneng, Kec. Babakan Madang, Kabupaten Bogor, Jawa Barat 16810, Indonesia",-6.6021779,106.9086139,8,-,3.7,3,tourist_attraction|point_of_interest|establishment,-,10/13/2023 9:38:52.000 PM,10/13/2023 9:38:52.000 PM
170,Kali Lunyu Klaten Kota,-,"7HWW+8X3, Sidowayah, Kabupaten, Kec. Klaten Tengah, Kabupaten Klaten, Jawa Tengah 57423, Indonesia",-7.7042294,110.5974163,33,Monday: Open 24 hours|Tuesday: Open 24 hours|Wednesday: Open 24 hours|Thursday: Open 24 hours|Friday: Open 24 hours|Saturday: Open 24 hours|Sunday: Open 24 hours,4.2,12,tourist_attraction|point_of_interest|establishment,0857-4392-0968,10/13/2023 9:38:52.000 PM,10/13/2023 9:38:52.000 PM
171,Bukit Bayangan,-,"Unnamed Road, V9Q3+VR8, Sumbernanas, Kalipuro, Kec. Kalipuro, Kabupaten Banyuwangi, Jawa Timur 68455, Indonesia",-8.1103274,114.3545809,15,-,5,1,tourist_attraction|point_of_interest|establishment,0822-4486-7781,10/13/2023 9:38:52.000 PM,10/13/2023 9:38:52.000 PM
172,KP BAMBU PETUNG,-,"Unnamed Road, 9V9X+87P, Jatirejo, Mranggen, Kec. Polokarto, Kabupaten Sukoharjo, Jawa Tengah 57513, Indonesia",-7.631654999999998,110.898193,7,-,4.6,5,tourist_attraction|point_of_interest|establishment,-,10/13/2023 9:38:52.000 PM,10/13/2023 9:38:52.000 PM
173,Museum Rumah Garuda,-,"Bantul, 38RR+9PF, Area Sawah, Trirenggo, Bantul, Bantul Regency, Special Region of Yogyakarta 55714, Indonesia",-7.9090635,110.341792,17,Monday: 10:00?AM?–?11:30?PM|Tuesday: 11:00?AM?–?11:30?PM|Wednesday: 10:00?AM?–?11:30?PM|Thursday: 10:00?AM?–?11:30?PM|Friday: 10:00?AM?–?11:30?PM|Saturday: 10:00?AM?–?11:30?PM|Sunday: 10:00?AM?–?11:30?PM,4.7,186,museum|tourist_attraction|point_of_interest|establishment,0818-279-088,10/13/2023 9:38:52.000 PM,10/13/2023 9:38:52.000 PM
174,Gantangan KMS Jaten Karanganyar,-,"CWG4+73J, Jl. Raya Sawahan, Dusun V, Jaten, Kec. Jaten, Kabupaten Karanganyar, Jawa Tengah 57731, Indonesia",-7.574048400000001,110.905134,7,Monday: 8:00?PM?–?12:00?AM|Tuesday: Open 24 hours|Wednesday: Open 24 hours|Thursday: 8:00?AM?–?12:00?AM|Friday: Open 24 hours|Saturday: Open 24 hours|Sunday: 1:30?–?5:00?PM,5,2,tourist_attraction|point_of_interest|establishment,0857-2856-1666,10/13/2023 9:38:52.000 PM,10/13/2023 9:38:52.000 PM
175,Candi Sari,Ruins of an 8th-century Buddhist temple originally constructed out of wood & stone.,"Jl. Candisari Jl. Raya Solo - Yogyakarta No.107, Bendan, Tirtomartani, Kec. Kalasan, Kabupaten Sleman, Daerah Istimewa Yogyakarta 55571, Indonesia",-7.761474499999999,110.4742274,5,Monday: 8:00?AM?–?3:00?PM|Tuesday: 8:00?AM?–?3:00?PM|Wednesday: 8:00?AM?–?3:00?PM|Thursday: 8:00?AM?–?3:00?PM|Friday: 8:00?AM?–?3:00?PM|Saturday: 8:00?AM?–?3:00?PM|Sunday: 8:00?AM?–?3:00?PM,4.5,1077,tourist_attraction|place_of_worship|point_of_interest|establishment,-,10/13/2023 9:38:52.000 PM,10/13/2023 9:38:52.000 PM
176,Desa Wisata Kedungkeris,-,"3JR6+2CG, Kwarasan Kulon, Kedung Keris, Kec. Nglipar, Kabupaten Gunung Kidul, Daerah Istimewa Yogyakarta 55852, Indonesia",-7.909940600000001,110.6110768,20,Monday: Open 24 hours|Tuesday: Open 24 hours|Wednesday: Open 24 hours|Thursday: Open 24 hours|Friday: Open 24 hours|Saturday: Open 24 hours|Sunday: Open 24 hours,5,1,tourist_attraction|point_of_interest|establishment,-,10/13/2023 9:38:52.000 PM,10/13/2023 9:38:52.000 PM
177,Taman Manula,-,"Jl. Soekarno - Hatta No.137, Curahgrinting, Kec. Kanigaran, Kota Probolinggo, Jawa Timur 67212, Indonesia",-7.7537753,113.1994085,12,Monday: Open 24 hours|Tuesday: Open 24 hours|Wednesday: Open 24 hours|Thursday: Open 24 hours|Friday: Open 24 hours|Saturday: Open 24 hours|Sunday: Open 24 hours,4.1,276,tourist_attraction|park|point_of_interest|establishment,-,10/13/2023 9:38:52.000 PM,10/13/2023 9:38:52.000 PM
178,Kolam merah putih,-,"PX3G+747, Krajan I, Kalibaru Kulon, Kec. Kalibaru, Kabupaten Banyuwangi, Jawa Timur 68467, Indonesia",-8.296843299999999,113.9752981,15,Monday: Open 24 hours|Tuesday: Open 24 hours|Wednesday: Open 24 hours|Thursday: Open 24 hours|Friday: Open 24 hours|Saturday: Open 24 hours|Sunday: Open 24 hours,4,1,tourist_attraction|point_of_interest|establishment,-,10/13/2023 9:38:52.000 PM,10/13/2023 9:38:52.000 PM
179,Jimbung Tebing Gebyog,-,"Jiwan, 7J54+GV, Dusun I, Jimbung, Kec. Kalikotes, Kabupaten Klaten, Jawa Tengah 57426, Indonesia",-7.7399059,110.6067172,33,Monday: 8:00?AM?–?11:50?PM|Tuesday: 8:00?AM?–?11:50?PM|Wednesday: 8:00?AM?–?11:50?PM|Thursday: 8:00?AM?–?11:50?PM|Friday: 8:00?AM?–?11:50?PM|Saturday: 8:00?AM?–?11:50?PM|Sunday: 8:00?AM?–?11:50?PM,4.3,108,tourist_attraction|point_of_interest|establishment,0857-2783-0777,10/13/2023 9:38:52.000 PM,10/13/2023 9:38:52.000 PM
180,Candi Kalasan,"Richly decorated, 8th-century Buddhist temple, adorned with intricately carved figures of deities.","Jl. Raya Yogya - Solo, 6FMC+3WW, Suryatmajan, Danurejan, Glondong, Tirtomartani, Kec. Kalasan, Kabupaten Sleman, Daerah Istimewa Yogyakarta, Indonesia",-7.767250499999999,110.4723365,5,-,4.5,1752,tourist_attraction|place_of_worship|point_of_interest|establishment,-,10/13/2023 9:38:52.000 PM,10/13/2023 9:38:52.000 PM
181,Angkruk Ranis,-,"PJ28+CWX, Jl. Raya Pandanarum, Area Hutan/Perkebunan, Tlaga, Kec. Pandanarum, Kab. Banjarnegara, Jawa Tengah 53458, Indonesia",-7.2988854,109.6173659,28,Monday: Open 24 hours|Tuesday: Open 24 hours|Wednesday: Open 24 hours|Thursday: Open 24 hours|Friday: Open 24 hours|Saturday: Open 24 hours|Sunday: Open 24 hours,4.4,88,tourist_attraction|point_of_interest|establishment,-,10/13/2023 9:38:52.000 PM,10/13/2023 9:38:52.000 PM
182,Jemur Adventure Park,-,"9M35+Q34, Jl. Jemur Clowok, Clowok, Jemur, Kec. Kebumen, Kabupaten Kebumen, Jawa Tengah 54317, Indonesia",-7.645624800000001,109.657707,30,-,4.1,168,tourist_attraction|point_of_interest|establishment,0858-4266-3211,10/13/2023 9:38:52.000 PM,10/13/2023 9:38:52.000 PM
183,CAMP SELO AJI,-,"Dusun Selorejo, Kaligondo, Kec. Genteng, Kabupaten Banyuwangi, Jawa Timur 68465, Indonesia",-8.2719534,114.1047382,15,Monday: 6:00?AM?–?4:30?PM|Tuesday: 6:00?AM?–?4:30?PM|Wednesday: 6:00?AM?–?4:30?PM|Thursday: 6:00?AM?–?4:30?PM|Friday: 6:00?AM?–?4:30?PM|Saturday: 6:00?AM?–?4:30?PM|Sunday: 6:00?AM?–?4:30?PM,4.6,51,tourist_attraction|point_of_interest|establishment,0857-1091-0119,10/13/2023 9:38:52.000 PM,10/13/2023 9:38:52.000 PM
184,Offroad Joglo Girli Adventure,-,"553G+29R, Kembang, Margosari, Kec. Pengasih, Kabupaten Kulon Progo, Daerah Istimewa Yogyakarta 55652, Indonesia",-7.847144999999999,110.1757398,19,Monday: 9:00?AM?–?5:00?PM|Tuesday: 9:00?AM?–?5:00?PM|Wednesday: 9:00?AM?–?5:00?PM|Thursday: 9:00?AM?–?5:00?PM|Friday: 9:00?AM?–?5:00?PM|Saturday: 9:00?AM?–?5:00?PM|Sunday: 9:00?AM?–?5:00?PM,5,17,tourist_attraction|point_of_interest|establishment,-,10/13/2023 9:38:52.000 PM,10/13/2023 9:38:52.000 PM
185,Candi Abang,"Site of temple buried beneath a grassy hill, now a quiet site for views of sunrise & sunset.","5FQ9+VF3, Blambangan, Jogotirto, Kec. Berbah, Kabupaten Sleman, Daerah Istimewa Yogyakarta 55573, Indonesia",-7.8103728,110.468686,5,Monday: 7:00?AM?–?6:00?PM|Tuesday: 7:00?AM?–?6:00?PM|Wednesday: 7:00?AM?–?6:00?PM|Thursday: 7:00?AM?–?6:00?PM|Friday: 7:00?AM?–?6:00?PM|Saturday: 7:00?AM?–?6:00?PM|Sunday: 7:00?AM?–?6:00?PM,4.3,1498,tourist_attraction|point_of_interest|establishment,-,10/13/2023 9:38:52.000 PM,10/13/2023 9:38:52.000 PM
186,SEMPOL AYAM SURKEN,-,"Jl. Wr. Bandrek, RT.01/RW.11, Bondongan, Kec. Bogor Sel., Kota Bogor, Jawa Barat 16131, Indonesia",-6.6109473,106.8047861,8,Monday: 11:00?AM?–?10:00?PM|Tuesday: 11:00?AM?–?10:00?PM|Wednesday: 11:00?AM?–?10:00?PM|Thursday: 11:00?AM?–?10:00?PM|Friday: 11:00?AM?–?10:00?PM|Saturday: 11:00?AM?–?10:00?PM|Sunday: 11:00?AM?–?10:00?PM,5,1,tourist_attraction|bar|point_of_interest|establishment,0896-6894-6695,10/13/2023 9:38:52.000 PM,10/13/2023 9:38:52.000 PM
187,CFD TRISAKTI,-,"soccer field, Oro - Oro Tengah, Triyagan, Kec. Mojolaban, Kabupaten Sukoharjo, Jawa Tengah 57554, Indonesia",-7.580695,110.8942942,7,Monday: Closed|Tuesday: Closed|Wednesday: Closed|Thursday: Closed|Friday: Closed|Saturday: Closed|Sunday: 5:30?–?10:00?AM,5,5,tourist_attraction|point_of_interest|establishment,-,10/13/2023 9:38:52.000 PM,10/13/2023 9:38:52.000 PM
188,Taman Sayu Wiwit Park,"Relaxed outdoor space providing palm trees, park benches & landscaped garden grounds.","Q9G8+FWF, Jl. Jenderal Ahmad Yani, Tukangkayu, Kec. Banyuwangi, Kabupaten Banyuwangi, Jawa Timur 68416, Indonesia",-8.223801299999998,114.3672908,15,Monday: 4:00?AM?–?12:00?AM|Tuesday: 4:00?AM?–?12:00?AM|Wednesday: 4:00?AM?–?12:00?AM|Thursday: 4:00?AM?–?12:00?AM|Friday: 4:00?AM?–?12:00?AM|Saturday: 4:00?AM?–?12:00?AM|Sunday: 4:00?AM?–?12:00?AM,4.5,1167,tourist_attraction|park|point_of_interest|establishment,-,10/13/2023 9:38:52.000 PM,10/13/2023 9:38:52.000 PM
189,Sumber Arum Sky Walk,-,"Unnamed Road, Q5Q5+8MM, Krajan, Sumberarum, Kec. Songgon, Kabupaten Banyuwangi, Jawa Timur 68463, Indonesia",-8.2116539,114.1591629,15,Monday: 8:00?AM?–?5:00?PM|Tuesday: 8:00?AM?–?5:00?PM|Wednesday: 8:00?AM?–?5:00?PM|Thursday: 8:00?AM?–?5:00?PM|Friday: 8:00?AM?–?5:00?PM|Saturday: 8:00?AM?–?5:00?PM|Sunday: 8:00?AM?–?5:00?PM,4.1,98,tourist_attraction|point_of_interest|establishment,-,10/13/2023 9:38:52.000 PM,10/13/2023 9:38:52.000 PM
190,Kampung Wisata Jati Pinang,-,"Gg. Kelurahan No.39, RT.4/RW.1, Pinang, Kec. Pinang, Kota Tangerang, Banten 15145, Indonesia",-6.214088099999999,106.6847293,10,-,3.7,7,tourist_attraction|point_of_interest|establishment,-,10/13/2023 9:38:52.000 PM,10/13/2023 9:38:52.000 PM
191,Manusia Sepet,-,"44MQ+RJM, Cekelan, Karangsari, Kec. Pengasih, Kabupaten Kulon Progo, Daerah Istimewa Yogyakarta 55652, Indonesia",-7.8654207,110.1390418,19,-,4,2,tourist_attraction|point_of_interest|establishment,-,10/13/2023 9:38:52.000 PM,10/13/2023 9:38:52.000 PM
192,Hutan Cemara Laut,-,"8322+3M2, Kemiren, Cilacap, Kec. Cilacap Sel., Kabupaten Cilacap, Jawa Tengah, Indonesia",-7.699852399999999,109.0516495,11,Monday: Open 24 hours|Tuesday: Open 24 hours|Wednesday: Open 24 hours|Thursday: Open 24 hours|Friday: Open 24 hours|Saturday: Open 24 hours|Sunday: Open 24 hours,4.3,116,tourist_attraction|point_of_interest|establishment,-,10/13/2023 9:38:52.000 PM,10/13/2023 9:38:52.000 PM
193,TOP Pindul GOA - Goa Ticketing Pindul,-,"Sokoliman 2, Bejiharjo, Sokoliman II, Bejiharjo, Kec. Karangmojo, Kabupaten Gunung Kidul, Daerah Istimewa Yogyakarta 55891, Indonesia",-7.918830000000001,110.657927,20,Monday: 8:00?AM?–?6:00?PM|Tuesday: 8:00?AM?–?6:00?PM|Wednesday: 8:00?AM?–?6:00?PM|Thursday: 8:00?AM?–?6:00?PM|Friday: 8:00?AM?–?6:00?PM|Saturday: Open 24 hours|Sunday: Open 24 hours,4.5,85,tourist_attraction|point_of_interest|establishment,0817-5463-200,10/13/2023 9:38:52.000 PM,10/13/2023 9:38:52.000 PM
194,JPL 06,-,"669G+Q3Q, Jl. Sunan Ampel, Jrebeng Lor, Kec. Kedopok, Kota Probolinggo, Jawa Timur 67238, Indonesia",-7.780559199999998,113.2253669,12,-,4,1,tourist_attraction|point_of_interest|establishment,-,10/13/2023 9:38:52.000 PM,10/13/2023 9:38:52.000 PM
195,Batu Ampar,-,"V87F+J6M, Gombeng, Gombengsari, Kec. Kalipuro, Kabupaten Banyuwangi, Jawa Timur 68455, Indonesia",-8.135908499999998,114.3230599,15,-,3.7,3,tourist_attraction|point_of_interest|establishment,-,10/13/2023 9:38:52.000 PM,10/13/2023 9:38:52.000 PM
196,Wisata alam batur,-,"RR46+MX, Mbakalan, Batur, Kec. Batur, Kab. Banjarnegara, Jawa Tengah 53456, Indonesia",-7.1932538,109.8124816,28,-,5,2,tourist_attraction|point_of_interest|establishment,-,10/13/2023 9:38:52.000 PM,10/13/2023 9:38:52.000 PM
197,Gunung Wijil Kupang,-,"8PFJ+3RJ, Gunungwijil, Kupang, Kec. Karangdowo, Kabupaten Klaten, Jawa Tengah 57464, Indonesia",-7.6772914,110.7320149,33,Monday: Open 24 hours|Tuesday: Open 24 hours|Wednesday: Open 24 hours|Thursday: Open 24 hours|Friday: Open 24 hours|Saturday: Open 24 hours|Sunday: Open 24 hours,4.2,408,tourist_attraction|point_of_interest|establishment,-,10/13/2023 9:38:52.000 PM,10/13/2023 9:38:52.000 PM
198,Koloni Ngopi Sogon,-,"XCC8+VF2, Karangrejo, Gajahmungkur, Semarang City, Central Java 50231, Indonesia",-7.027951099999999,110.416162,4,Monday: Closed|Tuesday: Closed|Wednesday: Closed|Thursday: Closed|Friday: Closed|Saturday: Closed|Sunday: 2:00?–?5:00?PM,5,5,tourist_attraction|point_of_interest|establishment,-,10/13/2023 9:38:52.000 PM,10/13/2023 9:38:52.000 PM
199,rumah depan tanjakan sartono,-,"PMV7+R7V, Margasari, Kalibombong, Kec. Kalibening, Kab. Banjarnegara, Jawa Tengah 53458, Indonesia",-7.254346,109.66373,28,-,5,1,tourist_attraction|point_of_interest|establishment,-,10/13/2023 9:38:52.000 PM,10/13/2023 9:38:52.000 PM
200,Mafa Travel & Tour,-,"H66C+X8R, Jl. Pahlawan Gg. XI, Tanjung, Kec. Purwokerto Sel., Kabupaten Banyumas, Jawa Tengah 53144, Indonesia",-7.437500099999999,109.2207712,13,Monday: 8:00?AM?–?5:00?PM|Tuesday: 8:00?AM?–?5:00?PM|Wednesday: 8:00?AM?–?5:00?PM|Thursday: 8:00?AM?–?5:00?PM|Friday: Closed|Saturday: 8:00?AM?–?5:00?PM|Sunday: 8:00?AM?–?5:00?PM,5,1,tourist_attraction|point_of_interest|establishment,0857-2593-6155,10/13/2023 9:38:52.000 PM,10/13/2023 9:38:52.000 PM
201,Agro Tourism Banyuwangi,-,"PT Perkebunan Nusantara XII Kebun Sungailembu Jl Sukomade Kecamatan Pesanggaran, Dusun Sungailembu, Sumberagung, Banyuwangi, Kabupaten Banyuwangi, Jawa Timur 68488, Indonesia",-8.521405999999999,114.010944,15,Monday: 6:00?AM?–?5:00?PM|Tuesday: 6:00?AM?–?5:00?PM|Wednesday: 6:00?AM?–?5:00?PM|Thursday: 6:00?AM?–?5:00?PM|Friday: 6:00?AM?–?5:00?PM|Saturday: 6:00?AM?–?5:00?PM|Sunday: Closed,4,75,tourist_attraction|point_of_interest|establishment,0821-4758-6311,10/13/2023 9:38:52.000 PM,10/13/2023 9:38:52.000 PM
202,Pantai watu lumbung,-,"RPR3+X8M, Balong, Girisubo, Gunung Kidul Regency, Special Region of Yogyakarta, Indonesia",-8.157547899999999,110.7033067,20,-,4.7,3,tourist_attraction|point_of_interest|establishment,-,10/13/2023 9:38:52.000 PM,10/13/2023 9:38:52.000 PM
203,RUMAH Dwi Wulandari(iin),-,"Q5QC+75, Sumberagung, Sumberbulu, Kec. Songgon, Kabupaten Banyuwangi, Jawa Timur 68463, Indonesia",-8.2118222,114.1703986,15,-,5,1,tourist_attraction|point_of_interest|establishment,-,10/13/2023 9:38:52.000 PM,10/13/2023 9:38:52.000 PM
204,Travel Blora Malang ??ALL TRANS JAYA?? travel malang gresik travel malang lamongan travel malang bojonegoro wisata bromo,-,"Kendalsari Gg. 1 No.18, Tulusrejo, Kec. Lowokwaru, Kota Malang, Jawa Timur 65141, Indonesia",-7.945831700000001,112.6249081,6,Monday: Open 24 hours|Tuesday: Open 24 hours|Wednesday: Open 24 hours|Thursday: Open 24 hours|Friday: Open 24 hours|Saturday: Open 24 hours|Sunday: Open 24 hours,4.8,22,travel_agency|tourist_attraction|point_of_interest|establishment,0813-3332-0749,10/13/2023 9:38:52.000 PM,10/13/2023 9:38:52.000 PM
205,TUJUAN TREKKING SENTUL,-,"Bojongkoneng kp muhara, Bojong Koneng, Kec. Babakan Madang, Kabupaten Bogor, Jawa Barat 16811, Indonesia",-6.6048601,106.9070703,8,Monday: Open 24 hours|Tuesday: Open 24 hours|Wednesday: Open 24 hours|Thursday: Open 24 hours|Friday: Open 24 hours|Saturday: Open 24 hours|Sunday: Open 24 hours,5,5,tourist_attraction|point_of_interest|establishment,0858-9172-8858,10/13/2023 9:38:52.000 PM,10/13/2023 9:38:52.000 PM
206,Embung Bendokerep,-,"6WG5+2P3, Gn. Kukusan, Giriwono, Kec. Wonogiri, Kabupaten Wonogiri, Jawa Tengah 57613, Indonesia",-7.774981700000001,110.9092962,32,Monday: Open 24 hours|Tuesday: Open 24 hours|Wednesday: Open 24 hours|Thursday: Open 24 hours|Friday: Open 24 hours|Saturday: Open 24 hours|Sunday: Open 24 hours,4.4,34,tourist_attraction|point_of_interest|establishment,0857-0220-5128,10/13/2023 9:38:52.000 PM,10/13/2023 9:38:52.000 PM
207,Gerbang Masuk Dermaga 3,-,"72CC+VVH, Jl. Lingkar Selatan, Karangmulia, Tegalkamulyan, Kec. Cilacap Sel., Kabupaten Cilacap, Jawa Tengah, Indonesia",-7.727824699999998,109.0222305,11,-,4,20,tourist_attraction|point_of_interest|establishment,-,10/13/2023 9:38:52.000 PM,10/13/2023 9:38:52.000 PM
208,Wisata Berkuda Winong,-,"HJPC+R94, Winong, Bawang, Banjarnegara, Central Java 53471, Indonesia",-7.412977199999999,109.6209681,28,Monday: Closed|Tuesday: Closed|Wednesday: Closed|Thursday: Closed|Friday: Closed|Saturday: Closed|Sunday: 8:00?AM?–?5:30?PM,4,1,tourist_attraction|point_of_interest|establishment,-,10/13/2023 9:38:52.000 PM,10/13/2023 9:38:52.000 PM
209,Galatama Bawal Pawang Gondang,-,"7HH7+54C, Jl. Klaten-Jogja, Karak, Plawikan, Kec. Jogonalan, Kabupaten Klaten, Jawa Tengah 57452, Indonesia",-7.722318,110.5628728,33,Monday: 7:30?PM?–?2:00?AM|Tuesday: 7:30?PM?–?2:00?AM|Wednesday: 7:30?PM?–?2:00?AM|Thursday: 7:30?PM?–?2:00?AM|Friday: 7:30?PM?–?2:00?AM|Saturday: Closed|Sunday: 3:00?–?9:00?PM,5,1,tourist_attraction|point_of_interest|establishment,0878-7779-3463,10/13/2023 9:38:52.000 PM,10/13/2023 9:38:52.000 PM
210,Atap Cempaka Sari,-,"Jl. Cemp. Sari Tim., Sekaran, Kec. Gn. Pati, Kota Semarang, Jawa Tengah 50229, Indonesia",-7.0552217,110.4008301,4,Monday: Open 24 hours|Tuesday: Open 24 hours|Wednesday: Open 24 hours|Thursday: Open 24 hours|Friday: Open 24 hours|Saturday: Open 24 hours|Sunday: Open 24 hours,5,2,tourist_attraction|point_of_interest|establishment,0857-0180-6862,10/13/2023 9:38:52.000 PM,10/13/2023 9:38:52.000 PM
211,Pemandian Kalianget Mangunan Kalibening Banjarnegara,-,"QJ8Q+FX7, Jl. Kalibening - Gripit, Jogjogan, Kalibening, Kec. Kalibening, Kab. Banjarnegara, Jawa Tengah 53458, Indonesia",-7.233836,109.6399173,28,Monday: 8:00?AM?–?6:00?PM|Tuesday: 8:00?AM?–?6:00?PM|Wednesday: 8:00?AM?–?6:00?PM|Thursday: 8:00?AM?–?6:00?PM|Friday: 8:00?AM?–?6:00?PM|Saturday: 8:00?AM?–?8:00?PM|Sunday: 8:00?AM?–?6:00?PM,4.2,673,tourist_attraction|point_of_interest|establishment,0853-2870-4040,10/13/2023 9:38:52.000 PM,10/13/2023 9:38:52.000 PM
212,Ngebeth Club,-,"Jl. Dagen No.50, Sosromenduran, Gedong Tengen, Kota Yogyakarta, Daerah Istimewa Yogyakarta 55271, Indonesia",-7.793696699999999,110.3634121,5,Monday: 8:00?AM?–?6:00?PM|Tuesday: 8:00?AM?–?6:00?PM|Wednesday: 8:00?AM?–?6:00?PM|Thursday: 8:00?AM?–?6:00?PM|Friday: 8:00?AM?–?6:00?PM|Saturday: 8:00?AM?–?6:00?PM|Sunday: 8:00?AM?–?6:00?PM,4.3,18,museum|tourist_attraction|point_of_interest|establishment,-,10/13/2023 9:38:52.000 PM,10/13/2023 9:38:52.000 PM
213,Rumah mba lia,-,"2F9C+2Q2, Area Kebun, Banyusoco, Kec. Playen, Kabupaten Gunung Kidul, Daerah Istimewa Yogyakarta 55861, Indonesia",-7.9824797,110.4718908,20,-,5,2,tourist_attraction|point_of_interest|establishment,-,10/13/2023 9:38:52.000 PM,10/13/2023 9:38:52.000 PM
214,Museum UGM,-,"Universitas Gajah Mada Blok D-6 & D-7, Jl. Sagan, Sagan, Caturtunggal, Kec. Depok, Kabupaten Sleman, Daerah Istimewa Yogyakarta 55281, Indonesia",-7.7740505,110.377893,16,Monday: 9:00?AM?–?4:00?PM|Tuesday: 9:00?AM?–?4:00?PM|Wednesday: 9:00?AM?–?4:00?PM|Thursday: 9:00?AM?–?4:00?PM|Friday: 9:00?AM?–?4:00?PM|Saturday: Closed|Sunday: Closed,4.6,201,museum|tourist_attraction|point_of_interest|establishment,0813-9159-5035,10/13/2023 9:38:52.000 PM,10/13/2023 9:38:52.000 PM
215,Taman Ponten Wonogiri,-,"JL. Wonokarto, No. 30 RT 01/III, Sabggrahan, Giripurwo, Kec. Wonogiri, Kabupaten Wonogiri, Jawa Tengah 57612, Indonesia",-7.813585499999999,110.9238408,32,Monday: Open 24 hours|Tuesday: Open 24 hours|Wednesday: Open 24 hours|Thursday: Open 24 hours|Friday: Open 24 hours|Saturday: Open 24 hours|Sunday: Open 24 hours,4.6,320,tourist_attraction|park|point_of_interest|establishment,-,10/13/2023 9:38:52.000 PM,10/13/2023 9:38:52.000 PM
216,Wisata Cigimbal Park,-,"82QM+3V, Cigimbal, Tritih Kulon, Cilacap Utara, Cilacap Regency, Central Java, Indonesia",-7.662271700000001,109.0346533,11,Monday: Open 24 hours|Tuesday: Open 24 hours|Wednesday: Open 24 hours|Thursday: Open 24 hours|Friday: Open 24 hours|Saturday: Open 24 hours|Sunday: 9:00?AM?–?6:00?PM,4.3,121,tourist_attraction|point_of_interest|establishment,-,10/13/2023 9:38:52.000 PM,10/13/2023 9:38:52.000 PM
217,Diponegoro Park,Small public park surrounded by a traffic roundabout featuring mature trees & landscaped paths.,"Jl. Sultan Agung, Lempongsari, Kec. Gajahmungkur, Kota Semarang, Jawa Tengah 50231, Indonesia",-7.0077127,110.4166632,4,Monday: Open 24 hours|Tuesday: Open 24 hours|Wednesday: Open 24 hours|Thursday: Open 24 hours|Friday: Open 24 hours|Saturday: Open 24 hours|Sunday: Open 24 hours,4.5,879,park|tourist_attraction|point_of_interest|establishment,-,10/13/2023 9:38:52.000 PM,10/13/2023 9:38:52.000 PM
218,Pasar Perjuangan Srowolan,-,"Jl. Palagan Tentara Pelajar No.116, Karanggeneng, Purwobinangun, Kec. Pakem, Kabupaten Sleman, Daerah Istimewa Yogyakarta 55582, Indonesia",-7.665926599999999,110.3848093,18,Monday: Open 24 hours|Tuesday: Open 24 hours|Wednesday: Open 24 hours|Thursday: Open 24 hours|Friday: Open 24 hours|Saturday: Open 24 hours|Sunday: Open 24 hours,4.5,208,tourist_attraction|point_of_interest|establishment,(0274) 8399779,10/13/2023 9:38:52.000 PM,10/13/2023 9:38:52.000 PM
219,Masjid Jami' Nurul Huda Desa Gendoh,-,"Jl.Abdurrahman Fuhry No.5, Gendoh Krajan, M6W5+574, Dusun Klontang, Gendoh, Kec. Sempu, Kabupaten Banyuwangi, Jawa Timur 68468, Indonesia",-8.304141699999999,114.2081809,15,-,4.5,68,mosque|tourist_attraction|place_of_worship|point_of_interest|establishment,-,10/13/2023 9:38:52.000 PM,10/13/2023 9:38:52.000 PM
220,Bannerman Aga Peak (UAP),-,"Gunungsari, Sumbergondo, Kec. Glenmore, Kabupaten Banyuwangi, Jawa Timur 68466, Indonesia",-8.2767488,114.09542,15,Monday: 7:00?AM?–?4:30?PM|Tuesday: 7:00?AM?–?4:30?PM|Wednesday: 7:00?AM?–?3:30?PM|Thursday: 7:00?AM?–?4:30?PM|Friday: 7:00?AM?–?4:30?PM|Saturday: 7:00?AM?–?3:30?PM|Sunday: 7:00?AM?–?4:30?PM,3.9,210,tourist_attraction|point_of_interest|establishment,0812-3113-0234,10/13/2023 9:38:52.000 PM,10/13/2023 9:38:52.000 PM
221,Sopo Najogy,-,"9V74+33, Cibanon, Sukaraja, Bogor Regency, West Java 16710, Indonesia",-6.6373022,106.8551484,8,-,5,2,tourist_attraction|point_of_interest|establishment,-,10/13/2023 9:38:52.000 PM,10/13/2023 9:38:52.000 PM
222,Monumen Tentara Pelajar,-,"72J4+884, Gg. Krajan, Krajan, Pangenjurutengah, Kec. Purworejo, Kabupaten Purworejo, Jawa Tengah 54114, Indonesia",-7.719228199999998,110.0058132,31,Monday: Open 24 hours|Tuesday: Open 24 hours|Wednesday: Open 24 hours|Thursday: Open 24 hours|Friday: Open 24 hours|Saturday: Open 24 hours|Sunday: Open 24 hours,4.2,182,tourist_attraction|point_of_interest|establishment,-,10/13/2023 9:38:52.000 PM,10/13/2023 9:38:52.000 PM
223,Park City Klaten,-,"7JV2+PM7, Jl. Pemuda, Losmenan, Kabupaten, Kec. Klaten Tengah, Kabupaten Klaten, Jawa Tengah 57413, Indonesia",-7.705709599999997,110.6016786,33,Monday: Open 24 hours|Tuesday: Open 24 hours|Wednesday: Open 24 hours|Thursday: Open 24 hours|Friday: Open 24 hours|Saturday: Open 24 hours|Sunday: Open 24 hours,4.2,366,tourist_attraction|park|point_of_interest|establishment,-,10/13/2023 9:38:52.000 PM,10/13/2023 9:38:52.000 PM
224,Onthel Podjok Pakem,-,"8CG6+X2H, Dero Wetan, Harjobinangun, Kec. Pakem, Kabupaten Sleman, Daerah Istimewa Yogyakarta 55582, Indonesia",-7.673275399999998,110.41014,18,-,4.7,20,tourist_attraction|point_of_interest|establishment,-,10/13/2023 9:38:52.000 PM,10/13/2023 9:38:52.000 PM
225,Wisata Alam Pesona Lembah kedung Luweng,-,"Anjir, Hargorejo, Kec. Kokap, Kabupaten Kulon Progo, Daerah Istimewa Yogyakarta 55653, Indonesia",-7.854768699999997,110.1067831,19,Monday: 9:00?AM?–?5:00?PM|Tuesday: 9:00?AM?–?5:00?PM|Wednesday: 9:00?AM?–?5:00?PM|Thursday: 9:00?AM?–?5:00?PM|Friday: 9:00?AM?–?10:00?PM|Saturday: 9:00?AM?–?10:00?PM|Sunday: 9:00?AM?–?5:00?PM,3.9,63,tourist_attraction|point_of_interest|establishment,-,10/13/2023 9:38:52.000 PM,10/13/2023 9:38:52.000 PM
226,Auvil land,-,"G6X2+22V, Talunrejo, Sembulung, Kec. Cluring, Kabupaten Banyuwangi, Jawa Timur 68482, Indonesia",-8.452468399999999,114.2008883,15,-,5,1,tourist_attraction|point_of_interest|establishment,-,10/13/2023 9:38:52.000 PM,10/13/2023 9:38:52.000 PM
227,"PANTAI TIMANG,jasa sewa jeep mandiri wisata timang (jmw adventure)",-,"Luwengombo, Purwodadi, Kec. Tepus, Kabupaten Gunung Kidul, Daerah Istimewa Yogyakarta 55881, Indonesia",-8.153093,110.6782135,20,Monday: 5:00?AM?–?7:01?PM|Tuesday: 5:00?AM?–?7:00?PM|Wednesday: 5:00?AM?–?7:00?PM|Thursday: 5:00?AM?–?7:00?PM|Friday: 5:00?AM?–?7:00?PM|Saturday: 5:00?AM?–?7:00?PM|Sunday: 5:00?AM?–?7:01?PM,4.3,21,tourist_attraction|point_of_interest|establishment,0821-4510-8133,10/13/2023 9:38:52.000 PM,10/13/2023 9:38:52.000 PM
228,"Sewa perahu + tekong ""IIS""",-,"Cigimbal, Tritih Kulon, Kec. Cilacap Utara, Kabupaten Cilacap, Jawa Tengah, Indonesia",-7.662616399999999,109.0377838,11,Monday: Open 24 hours|Tuesday: Open 24 hours|Wednesday: Open 24 hours|Thursday: Open 24 hours|Friday: Open 24 hours|Saturday: Open 24 hours|Sunday: Open 24 hours,5,2,tourist_attraction|point_of_interest|establishment,0895-1406-0545,10/13/2023 9:38:52.000 PM,10/13/2023 9:38:52.000 PM
229,PT. Cahaya Makmur Tour Indo,-,"Komplek Komplek Pertokoan No.B02 Depan SMA N 1, Jl. Ikan Tongkol, Kertosari, Kec. Banyuwangi, Kabupaten Banyuwangi, Jawa Timur 68418, Indonesia",-8.228285399999999,114.3714141,15,Monday: Open 24 hours|Tuesday: Open 24 hours|Wednesday: Open 24 hours|Thursday: Open 24 hours|Friday: Open 24 hours|Saturday: Open 24 hours|Sunday: Open 24 hours,4.9,75,travel_agency|tourist_attraction|point_of_interest|establishment,0813-3657-1189,10/13/2023 9:38:52.000 PM,10/13/2023 9:38:52.000 PM
230,Gate Benteng Pendem,-,"7229+CHM, Sentolokawat, Cilacap, Kec. Cilacap Sel., Kabupaten Cilacap, Jawa Tengah, Indonesia",-7.748913,109.0189359,11,Monday: 8:00?AM?–?6:00?PM|Tuesday: 8:00?AM?–?6:00?PM|Wednesday: 8:00?AM?–?6:00?PM|Thursday: 8:00?AM?–?6:00?PM|Friday: 8:00?AM?–?6:00?PM|Saturday: 8:00?AM?–?6:00?PM|Sunday: 8:00?AM?–?6:00?PM,5,1,tourist_attraction|point_of_interest|establishment,-,10/13/2023 9:38:52.000 PM,10/13/2023 9:38:52.000 PM
231,PRAPATAN BLIMBING,-,"5XHG+24W, Ngreco, Ngadirojo Kidul, Kec. Ngadirojo, Kabupaten Wonogiri, Jawa Tengah 57681, Indonesia",-7.822388600000001,110.9753355,32,-,5,1,tourist_attraction|point_of_interest|establishment,-,10/13/2023 9:38:52.000 PM,10/13/2023 9:38:52.000 PM
232,"curug silanjar,",-,"Unnamed Road, FGRQ+C88, Kalicilik, Kalitengah, Kec. Purwanegara, Kab. Banjarnegara, Jawa Tengah 53472, Indonesia",-7.508964199999998,109.5383135,28,-,4.3,4,tourist_attraction|point_of_interest|establishment,-,10/13/2023 9:38:52.000 PM,10/13/2023 9:38:52.000 PM
233,Eks Roemah Fletterman,-,"Jl. Kyai Saleh No.15, Randusari, Kec. Semarang Sel., Kota Semarang, Jawa Tengah 50244, Indonesia",-6.9956203,110.414029,4,-,5,2,tourist_attraction|point_of_interest|establishment,-,10/13/2023 9:38:52.000 PM,10/13/2023 9:38:52.000 PM
234,Banyuwangi Park,-,"Dusun Krajan, Dadapan, Kec. Kabat, Kabupaten Banyuwangi, Jawa Timur 68461, Indonesia",-8.2610656,114.3372666,15,Monday: 9:00?AM?–?5:00?PM|Tuesday: 9:00?AM?–?5:00?PM|Wednesday: 9:00?AM?–?5:00?PM|Thursday: 9:00?AM?–?5:00?PM|Friday: 9:00?AM?–?5:00?PM|Saturday: 9:00?AM?–?5:00?PM|Sunday: 9:00?AM?–?5:00?PM,4.4,693,tourist_attraction|point_of_interest|establishment,0813-3335-8088,10/13/2023 9:38:52.000 PM,10/13/2023 9:38:52.000 PM
235,Museum Tanah dan Pertanian,-,"Jl. Ir. H. Juanda No.98, RT.01/RW.01, Gudang, Kecamatan Bogor Tengah, Kota Bogor, Jawa Barat 16123, Indonesia",-6.6037032,106.7978677,8,Monday: Closed|Tuesday: 9:00?AM?–?3:00?PM|Wednesday: 9:00?AM?–?3:00?PM|Thursday: 9:00?AM?–?3:00?PM|Friday: Closed|Saturday: 9:00?AM?–?12:00?PM|Sunday: Closed,4.7,669,museum|tourist_attraction|point_of_interest|establishment,0853-1419-7937,10/13/2023 9:38:52.000 PM,10/13/2023 9:38:52.000 PM
236,Jembatan Sayidan,-,"59XC+9GC, Jl. Sultan Agung, Prawirodirjan, Kec. Gondomanan, Kota Yogyakarta, Daerah Istimewa Yogyakarta 55121, Indonesia",-7.8015687,110.3712668,16,Monday: Open 24 hours|Tuesday: Open 24 hours|Wednesday: Open 24 hours|Thursday: Open 24 hours|Friday: Open 24 hours|Saturday: Open 24 hours|Sunday: Open 24 hours,4.6,2050,tourist_attraction|point_of_interest|establishment,-,10/13/2023 9:38:52.000 PM,10/13/2023 9:38:52.000 PM
237,Taman wisata edukasi klanceng madukoro,-,"P3RF+QW, Sugihwaras, Bumiharjo, Glenmore, Banyuwangi Regency, East Java, Indonesia",-8.2580333,114.0748067,15,-,5,2,tourist_attraction|point_of_interest|establishment,-,10/13/2023 9:38:52.000 PM,10/13/2023 9:38:52.000 PM
238,RMS Farm (Kebun&Ternak),-,"RP26+3RC, RT.001/RW.011, Karang Mulya, Kec. Karang Tengah, Kota Tangerang, Banten 15157, Indonesia",-6.1998089,106.7120065,10,Monday: Open 24 hours|Tuesday: Open 24 hours|Wednesday: Open 24 hours|Thursday: Open 24 hours|Friday: Open 24 hours|Saturday: Open 24 hours|Sunday: Closed,5,5,tourist_attraction|point_of_interest|establishment,-,10/13/2023 9:38:52.000 PM,10/13/2023 9:38:52.000 PM
239,Keraton Ngayogyakarta Hadiningrat,"Built in the 18th century, this grand palace is still used by Indonesian royalty.","Jl. Rotowijayan Blok No. 1, Panembahan, Kecamatan Kraton, Kota Yogyakarta, Daerah Istimewa Yogyakarta, Indonesia",-7.8052845,110.3642031,5,Monday: Closed|Tuesday: 8:30?AM?–?2:30?PM|Wednesday: 8:30?AM?–?2:30?PM|Thursday: 8:30?AM?–?2:30?PM|Friday: 8:30?AM?–?2:30?PM|Saturday: 8:30?AM?–?2:30?PM|Sunday: 8:30?AM?–?2:30?PM,4.6,35499,tourist_attraction|point_of_interest|establishment,(0274) 373721,10/13/2023 9:38:52.000 PM,10/13/2023 9:38:52.000 PM
240,Tunggak Nongko,-,"Unnamed Road, 4MV4+PR4, Sawah, Jeruksari, Kec. Tirto, Kabupaten Pekalongan, Jawa Tengah 51151, Indonesia",-6.8557436,109.6570781,14,-,5,5,tourist_attraction|point_of_interest|establishment,-,10/13/2023 9:38:52.000 PM,10/13/2023 9:38:52.000 PM
241,Panorama Teras Hyatt Jogja,-,"795F+P72, Panggung Sari, Sariharjo, Kec. Ngaglik, Kabupaten Sleman, Daerah Istimewa Yogyakarta, Indonesia",-7.740745400000001,110.3731464,18,Monday: Open 24 hours|Tuesday: Open 24 hours|Wednesday: Open 24 hours|Thursday: Open 24 hours|Friday: Open 24 hours|Saturday: Open 24 hours|Sunday: Open 24 hours,5,4,tourist_attraction|point_of_interest|establishment,-,10/13/2023 9:38:52.000 PM,10/13/2023 9:38:52.000 PM
242,Surya Yudha Park,"Popular leisure complex featuring a water park, a cinema, an eatery & an attached hotel.","Jl. Raya Rejasa No.KM.1, Rejasa, Kec. Madukara, Kab. Banjarnegara, Jawa Tengah 53482, Indonesia",-7.389256,109.690806,28,Monday: 8:00?AM?–?5:00?PM|Tuesday: 8:00?AM?–?5:00?PM|Wednesday: 8:00?AM?–?5:00?PM|Thursday: 8:00?AM?–?5:00?PM|Friday: 8:00?AM?–?5:00?PM|Saturday: 8:00?AM?–?5:00?PM|Sunday: 8:00?AM?–?5:00?PM,4.3,9120,tourist_attraction|lodging|point_of_interest|establishment,0821-1588-8001,10/13/2023 9:38:52.000 PM,10/13/2023 9:38:52.000 PM
243,Bendung Boro,-,"72F4+FFG, Jl. Bogowonto, Rw. 03, Pangenrejo, Kec. Purworejo, Kabupaten Purworejo, Jawa Tengah 54115, Indonesia",-7.7263018,110.0062118,31,-,4.5,328,tourist_attraction|point_of_interest|establishment,-,10/13/2023 9:38:52.000 PM,10/13/2023 9:38:52.000 PM
244,Alas Purwo Banyuwangi,-,"Kutorejo, Kalipait, Kec. Tegaldlimo, Kabupaten Banyuwangi, Jawa Timur 68484, Indonesia",-8.6934644,114.4601949,15,Monday: Closed|Tuesday: Closed|Wednesday: Closed|Thursday: Closed|Friday: 8:30?AM?–?5:30?PM|Saturday: 8:30?AM?–?5:30?PM|Sunday: 8:00?AM?–?5:00?PM,3.9,8,tourist_attraction|point_of_interest|establishment,-,10/13/2023 9:38:52.000 PM,10/13/2023 9:38:52.000 PM
245,TPR Gesing,-,"WFF3+6CM, Bolang, Girikarto, Kec. Panggang, Kabupaten Gunung Kidul, Daerah Istimewa Yogyakarta 55872, Indonesia",-8.0769026,110.4535402,20,-,5,3,tourist_attraction|point_of_interest|establishment,-,10/13/2023 9:38:52.000 PM,10/13/2023 9:38:52.000 PM
